id,location,geonames_id,lat,lon,display_name,,,"If the Geocode script can't find coordinates for a place, try searching for the place in Wikidata and manually copy the coordinates."
0001,A bord de la frégate à vapeur l'Ulloa,,,,0001: A bord de la frégate à vapeur l'Ulloa,,,
0002,"A bord du transport ""La Sarthe""",,,,"0002: A bord du transport ""La Sarthe""",,,
0003,"A bord du transport le ""Japon""",,,,"0003: A bord du transport le ""Japon""",,,
0004,Abou Korkas,,,,0004: Abou Korkas,,,
0005,Abou-Zabel,,,,0005: Abou-Zabel,,,
0006,Abouzabel,,,,0006: Abouzabel,,,
0007,Abu-Zabel,,,,0007: Abu-Zabel,,,
0008,Abyssinia,337996,9.000,39.500,0008: Abyssinia,,,
0009,Abyssinie,337996,9.000,39.500,0009: Abyssinie,,,
0010,"Acqueville, Département de la Manche",3038682,49.609,-1.750,"0010: Acqueville, Département de la Manche",,,
0011,Agde,3038638,43.311,3.476,0011: Agde,,,
0012,"Agde, Département de l'Hérault",3038638,43.311,3.476,"0012: Agde, Département de l'Hérault",,,
0013,"Agen, Département de Lot et Garonne",2980676,44.178,0.516,"0013: Agen, Département de Lot et Garonne",,,
0014,"Agen, Département du Lot-et-Garonne",3038634,44.200,0.627,"0014: Agen, Département du Lot-et-Garonne",,,
0015,"Agen, Département du Tarn et Garonne",2971054,44.108,0.891,"0015: Agen, Département du Tarn et Garonne",,,
0016,"Agnetz, Département de l'Oise",3038604,49.381,2.386,"0016: Agnetz, Département de l'Oise",,,
0017,"Agon, Département de la Manche",3038590,49.042,-1.575,"0017: Agon, Département de la Manche",,,
0018,"Aibre, Département du Doubs",3038559,47.551,6.697,"0018: Aibre, Département du Doubs",,,
0019,"Aiglepierre, Département du Jura",3038545,46.953,5.817,"0019: Aiglepierre, Département du Jura",,,
0020,"Aigueperse, Département du Puy-de-Dôme",3038498,46.023,3.202,"0020: Aigueperse, Département du Puy-de-Dôme",,,
0021,"Aigues-Mortes, Département du Gard",3038493,43.567,4.191,"0021: Aigues-Mortes, Département du Gard",,,
0022,Aigues-Mortes (Gard),3038493,43.567,4.191,0022: Aigues-Mortes (Gard),,,
0023,"Aiguèze, Département du Gard",3038483,44.302,4.555,"0023: Aiguèze, Département du Gard",,,
0024,"Aiguines, Département du Var",3038459,43.776,6.243,"0024: Aiguines, Département du Var",,,
0025,"Ailhon, Département de l'Ardèche",6620020,44.598,4.342,"0025: Ailhon, Département de l'Ardèche",,,
0026,"Aillas, Département de la Gironde",3038448,44.474,-0.073,"0026: Aillas, Département de la Gironde",,,
0027,Aïoucha bent Saïd,,,,0027: Aïoucha bent Saïd,,,
0028,Airvault,3038384,46.827,-0.138,0028: Airvault,,,
0029,"Airvault, Département des Deux-Sèvres",3038384,46.827,-0.138,"0029: Airvault, Département des Deux-Sèvres",,,
0030,Aix,3038350,45.692,5.909,0030: Aix,,,
0031,"Aix, Département de Provence",3038354,43.528,5.450,"0031: Aix, Département de Provence",,,
0032,"Aix, Département des  Bouches-du-Rhône",3038354,43.528,5.450,"0032: Aix, Département des  Bouches-du-Rhône",,,
0033,"Aix-en-Provence, Département des Bouches du Rhône",3038354,43.528,5.450,"0033: Aix-en-Provence, Département des Bouches du Rhône",,,
0034,"Aix-les-Bains, Département de la Savoie",3038350,45.692,5.909,"0034: Aix-les-Bains, Département de la Savoie",,,
0035,Ajaccio,3038334,41.919,8.738,0035: Ajaccio,,,
0036,"Ajaccio, Département de la Corse",3038334,41.919,8.738,"0036: Ajaccio, Département de la Corse",,,
0037,"Ajaccio, Département de la Haute-Corse",,,,"0037: Ajaccio, Département de la Haute-Corse",,,
0038,Akmin,,,,0038: Akmin,,,
0039,Al Minya,360686,28.110,30.750,0039: Al Minya,,,
0040,"Alais, Département du Gard",3038224,44.125,4.081,"0040: Alais, Département du Gard",,,
0041,"Alan, Département de la Haute-Garonne",3038308,43.230,0.940,"0041: Alan, Département de la Haute-Garonne",,,
0042,"Albertville, Département de la Savoie",3038266,45.675,6.391,"0042: Albertville, Département de la Savoie",,,
0043,Albi,3038261,43.930,2.148,0043: Albi,,,
0044,"Albi, Département du Tarn",3038261,43.930,2.148,"0044: Albi, Département du Tarn",,,
0045,Albi (Tarn),3038261,43.930,2.148,0045: Albi (Tarn),,,
0046,"Alençon, Département de l'Orne",3038230,48.435,0.093,"0046: Alençon, Département de l'Orne",,,
0047,Alençon (Orne),3038230,48.435,0.093,0047: Alençon (Orne),,,
0048,"Alep, Syrie",170063,36.201,37.161,"0048: Alep, Syrie",,,
0049,"Alès, Département du Gard",3038224,44.125,4.081,"0049: Alès, Département du Gard",,,
0050,"Alex, Département de la Savoie",3038217,45.890,6.236,"0050: Alex, Département de la Savoie",,,
0051,Alexandrie,361058,31.202,29.916,0051: Alexandrie,,,
0052,Alexandrie d'Egypte,361058,31.202,29.916,0052: Alexandrie d'Egypte,,,
0053,"Alexandrie, Département d'Egypte",,,,"0053: Alexandrie, Département d'Egypte",,,
0054,"Alexandrie, Egypte",361058,31.202,29.916,"0054: Alexandrie, Egypte",,,
0055,Alger,2507480,36.732,3.087,0055: Alger,,,
0056,Alger (Algérie),2507480,36.732,3.087,0056: Alger (Algérie),,,
0057,"Alger, Département d'Algérie",2507480,36.732,3.087,"0057: Alger, Département d'Algérie",,,
0058,Algérie,2589581,28.000,3.000,0058: Algérie,,,
0059,"Algérie, Alger",2507480,36.732,3.087,"0059: Algérie, Alger",,,
0060,"Alixan, Département de la Drôme",3038186,44.974,5.029,"0060: Alixan, Département de la Drôme",,,
0061,"Allaines, Département de la Somme",3038180,49.963,2.946,"0061: Allaines, Département de la Somme",,,
0062,Allemagne,2921044,51.500,10.500,0062: Allemagne,,,
0063,"Allemans-du-Dropt, Département du Lot-et-Garonne",3038151,44.628,0.290,"0063: Allemans-du-Dropt, Département du Lot-et-Garonne",,,
0064,"Allemond, Département de l'Isère",3038146,45.129,6.037,"0064: Allemond, Département de l'Isère",,,
0065,"Allineuc, Département des Côtes-du-Nord",3038100,48.311,-2.872,"0065: Allineuc, Département des Côtes-du-Nord",,,
0066,"Allos, Département des Basses-Alpes",,,,"0066: Allos, Département des Basses-Alpes",,,
0067,"Alos, Département de l'Ariège",3038056,42.908,1.140,"0067: Alos, Département de l'Ariège",,,
0068,"Alzonne, Département de l'Aude",3037984,43.253,2.178,"0068: Alzonne, Département de l'Aude",,,
0069,"Ambérieu-en-Buguey, Département de l'Ain",,,,"0069: Ambérieu-en-Buguey, Département de l'Ain",,,
0070,"Ambres, Département du Tarn",3037891,43.732,1.813,"0070: Ambres, Département du Tarn",,,
0071,"Ambutrix, Département de l'Ain",3037879,45.938,5.339,"0071: Ambutrix, Département de l'Ain",,,
0072,"Amiens, Département de la Somme",3037854,49.900,2.300,"0072: Amiens, Département de la Somme",,,
0073,"Ammerschwihr, Département du Haut Rhin",3037842,48.125,7.283,"0073: Ammerschwihr, Département du Haut Rhin",,,
0074,"Amou, Département des Landes",3037829,43.593,-0.747,"0074: Amou, Département des Landes",,,
0075,"Ampilly-le-sec, Département de Côte d'Or",3037821,47.809,4.532,"0075: Ampilly-le-sec, Département de Côte d'Or",,,
0076,Amplepuis,3037818,45.973,4.330,0076: Amplepuis,,,
0077,"Amplepuis, Département du Rhône",3037818,45.973,4.330,"0077: Amplepuis, Département du Rhône",,,
0078,"Amraoui, Algérie",2574024,36.133,0.441,"0078: Amraoui, Algérie",,,
0079,"Amsterdam, Hollande",2759794,52.374,4.890,"0079: Amsterdam, Hollande",,,
0080,Ancenis,3037797,47.367,-1.167,0080: Ancenis,,,
0081,"Ancenis, Département de la Loire-Inférieure",3037797,47.367,-1.167,"0081: Ancenis, Département de la Loire-Inférieure",,,
0082,Ancône,3037770,44.581,4.727,0082: Ancône,,,
0083,"Ancône, Italie",3183089,43.594,13.503,"0083: Ancône, Italie",,,
0084,Andernos,3037726,44.746,-1.104,0084: Andernos,,,
0085,"Andernos, Département de la Gironde",3037726,44.746,-1.104,"0085: Andernos, Département de la Gironde",,,
0086,"Andilly, Département de Seine-et-Oise",,,,"0086: Andilly, Département de Seine-et-Oise",,,
0087,"Andlau, Département du Bas-Rhin",3037708,48.386,7.417,"0087: Andlau, Département du Bas-Rhin",,,
0088,"Anduze, Département du Gard",3037682,44.054,3.985,"0088: Anduze, Département du Gard",,,
0089,"Angers, Département de Maine-et-Loire",3037656,47.474,-0.548,"0089: Angers, Département de Maine-et-Loire",,,
0090,Angers (Maine-et-Loire),3037656,47.474,-0.548,0090: Angers (Maine-et-Loire),,,
0091,"Anglards, Département du Cantal",3037632,44.981,3.154,"0091: Anglards, Département du Cantal",,,
0092,Angleterre,2643743,51.509,-0.126,0092: Angleterre,,,
0093,Angoulême,3037598,45.650,0.153,0093: Angoulême,,,
0094,"Angoulême, Département de la Charente",3037598,45.650,0.153,"0094: Angoulême, Département de la Charente",,,
0095,"Aniane, Département de l'Hérault",3037572,43.684,3.587,"0095: Aniane, Département de l'Hérault",,,
0096,"Annaba, Algérie",2506999,36.900,7.767,"0096: Annaba, Algérie",,,
0097,"Anneau, Département de l'Eure-et-Loire",,,,"0097: Anneau, Département de l'Eure-et-Loire",,,
0098,"Annecy, Département de la Haute-Savoie",3037543,45.909,6.126,"0098: Annecy, Département de la Haute-Savoie",,,
0099,"Annecy-le-Vieux, Département de la Haute-Savoie",3037540,45.920,6.144,"0099: Annecy-le-Vieux, Département de la Haute-Savoie",,,
0100,"Anneyron, Département de la Drôme",3037523,45.272,4.886,"0100: Anneyron, Département de la Drôme",,,
0101,"Annonay, Département de l'Ardèche",3037514,45.240,4.671,"0101: Annonay, Département de l'Ardèche",,,
0102,"Annot, Département des Alpes-de-Haute-Provence",3037512,43.965,6.669,"0102: Annot, Département des Alpes-de-Haute-Provence",,,
0103,"Annot, Département des Basses-Alpes",,,,"0103: Annot, Département des Basses-Alpes",,,
0104,"Anot, Département des Alpes-de-Haute-Provence",3037512,43.965,6.669,"0104: Anot, Département des Alpes-de-Haute-Provence",,,
0105,Antibes,3037456,43.586,7.108,0105: Antibes,,,
0106,Antibes (Alpes-Maritimes),3037456,43.586,7.108,0106: Antibes (Alpes-Maritimes),,,
0107,"Antibes, Département des Alpes-Maritimes",3037456,43.586,7.108,"0107: Antibes, Département des Alpes-Maritimes",,,
0108,"Antibes, Département du Var",,,,"0108: Antibes, Département du Var",,,
0109,"Antonino, Département de la Haute-Corse",2976125,42.589,8.905,"0109: Antonino, Département de la Haute-Corse",,,
0110,Anzin (Nord),3037397,50.372,3.504,0110: Anzin (Nord),,,
0111,Anzin-Saint-Aubin,3037396,50.313,2.747,0111: Anzin-Saint-Aubin,,,
0112,"Anzin-Saint-Aubin, Département du Pas de Calais",3037396,50.313,2.747,"0112: Anzin-Saint-Aubin, Département du Pas de Calais",,,
0113,"Aoste, Département de l'Isère",3037393,45.594,5.607,"0113: Aoste, Département de l'Isère",,,
0114,"Apt, Département du Vaucluse",3028134,43.831,5.036,"0114: Apt, Département du Vaucluse",,,
0115,"Aramits, Département des Basses-Pyrénées",3037332,43.117,-0.717,"0115: Aramits, Département des Basses-Pyrénées",,,
0116,"Arbal, Algérie",2572968,36.503,1.846,"0116: Arbal, Algérie",,,
0117,"Arbas, Département de la Haute-Garonne",3037310,42.996,0.908,"0117: Arbas, Département de la Haute-Garonne",,,
0118,"Arbignieu, Département de l'Ain",3037300,45.728,5.650,"0118: Arbignieu, Département de l'Ain",,,
0119,"Arbois, Département du Jura",3037287,46.903,5.775,"0119: Arbois, Département du Jura",,,
0120,"Arc-et-Senans, Département du Doubs",3037224,47.031,5.770,"0120: Arc-et-Senans, Département du Doubs",,,
0121,"Archambault, Département de l'Yonne",,,,"0121: Archambault, Département de l'Yonne",,,
0122,"Arches, Département des Vosges",3037209,48.119,6.528,"0122: Arches, Département des Vosges",,,
0123,"Arconsat, Département du Puy-de-Dôme",3037167,45.889,3.713,"0123: Arconsat, Département du Puy-de-Dôme",,,
0124,Ardres,3037113,50.858,1.982,0124: Ardres,,,
0125,"Ardres, Département du Pas de Calais",3037113,50.858,1.982,"0125: Ardres, Département du Pas de Calais",,,
0126,"Are, Département de la Haute-Saône",,,,"0126: Are, Département de la Haute-Saône",,,
0127,"Argein, Département de l'Ariège",3037072,42.931,0.993,"0127: Argein, Département de l'Ariège",,,
0128,"Argentan, Département de l'Orne",3037051,48.744,-0.020,"0128: Argentan, Département de l'Orne",,,
0129,"Argentat, Département de la Corrèze",3037049,45.093,1.938,"0129: Argentat, Département de la Corrèze",,,
0130,"Argentenay, Département de l'Yonne",3037045,47.815,4.112,"0130: Argentenay, Département de l'Yonne",,,
0131,"Argenton-Château, Département des Deux-Sèvres",3037021,46.985,-0.450,"0131: Argenton-Château, Département des Deux-Sèvres",,,
0132,"Arinthod, Département du Jura",3036957,46.393,5.566,"0132: Arinthod, Département du Jura",,,
0133,Arles (Bouches-du-Rhône),3036938,43.677,4.630,0133: Arles (Bouches-du-Rhône),,,
0134,"Arles, Département des Bouches du Rhône",3036938,43.677,4.630,"0134: Arles, Département des Bouches du Rhône",,,
0135,"Arles-sur-Tech, Département des Pyrénées Orientales",3036935,42.457,2.635,"0135: Arles-sur-Tech, Département des Pyrénées Orientales",,,
0136,Arménie,174982,40.250,45.000,0136: Arménie,,,
0137,"Arras, Département de l'Ardèche",3036781,45.142,4.807,"0137: Arras, Département de l'Ardèche",,,
0138,"Arras, Département du Pas de Calais",3036784,50.293,2.782,"0138: Arras, Département du Pas de Calais",,,
0139,Arrondissement de Genes,2980024,44.751,-0.372,0139: Arrondissement de Genes,,,
0140,"Ars-en-Ré, Département de la Charente-Inférieure",3036719,46.206,-1.527,"0140: Ars-en-Ré, Département de la Charente-Inférieure",,,
0141,Ars-Laquenexy,3036715,49.094,6.270,0141: Ars-Laquenexy,,,
0142,"Arthenac, Département de la Charente Inférieure",3036689,45.517,-0.317,"0142: Arthenac, Département de la Charente Inférieure",,,
0143,"Arudy, Département des Basses-Pyrénées",3036633,43.106,-0.433,"0143: Arudy, Département des Basses-Pyrénées",,,
0144,Arzacq,3036611,43.533,-0.417,0144: Arzacq,,,
0145,"Arzon, Département du Morbihan",3036601,47.549,-2.890,"0145: Arzon, Département du Morbihan",,,
0146,Asnan,3036578,47.309,3.554,0146: Asnan,,,
0147,"Asnan, Département de la Nièvre",3036578,47.309,3.554,"0147: Asnan, Département de la Nièvre",,,
0148,"Asnois, Département de la Nièvre",3036557,47.398,3.596,"0148: Asnois, Département de la Nièvre",,,
0149,"Assé-le-Boisne, Département de la Sarthe",3036517,48.322,-0.009,"0149: Assé-le-Boisne, Département de la Sarthe",,,
0150,Asswiller (Bas-Rhin),3036496,48.881,7.220,0150: Asswiller (Bas-Rhin),,,
0151,"Asté, Département des Hautes-Pyrénées",3036491,43.041,0.169,"0151: Asté, Département des Hautes-Pyrénées",,,
0152,Atfé (Basse égypte),,,,0152: Atfé (Basse égypte),,,
0153,Atfeh,,,,0153: Atfeh,,,
0154,Athènes,264371,37.984,23.728,0154: Athènes,,,
0155,Athènes (Grèce),264371,37.984,23.728,0155: Athènes (Grèce),,,
0156,Aubagne,3036433,43.293,5.571,0156: Aubagne,,,
0157,"Aubagne, Département des Bouches du Rhône",3036433,43.293,5.571,"0157: Aubagne, Département des Bouches du Rhône",,,
0158,"Aubargne, Département des Bouches du Rhône",,,,"0158: Aubargne, Département des Bouches du Rhône",,,
0159,"Aubas, Département de la Dordogne",3036426,45.082,1.193,"0159: Aubas, Département de la Dordogne",,,
0160,Aubenas,3036418,44.620,4.390,0160: Aubenas,,,
0161,"Aubenas, Département de l'Ardèche",3036418,44.620,4.390,"0161: Aubenas, Département de l'Ardèche",,,
0162,"Auberives, Département de l'Isère",3036399,45.421,4.819,"0162: Auberives, Département de l'Isère",,,
0163,"Aubermesnil, Département de la Seine-Inférieure",3036395,49.844,1.117,"0163: Aubermesnil, Département de la Seine-Inférieure",,,
0164,"Aubignan, Département du Vaucluse",3036359,44.100,5.025,"0164: Aubignan, Département du Vaucluse",,,
0165,"Aubigny-au-Bac, Département du Nord",3036335,50.264,3.164,"0165: Aubigny-au-Bac, Département du Nord",,,
0166,"Aubigny, Département du Pas-de-Calais",3036338,50.350,2.583,"0166: Aubigny, Département du Pas-de-Calais",,,
0167,"Aubigny-sur-Nère, Département du Cher",3036326,47.488,2.439,"0167: Aubigny-sur-Nère, Département du Cher",,,
0168,Audierne,3036247,48.016,-4.538,0168: Audierne,,,
0169,"Audincourt, Département du Doubs",3036240,47.483,6.853,"0169: Audincourt, Département du Doubs",,,
0170,"Audrehem, Département du Pas-de-Calais",3036235,50.781,1.990,"0170: Audrehem, Département du Pas-de-Calais",,,
0171,"Augerans, Département du Jura",3036207,47.020,5.577,"0171: Augerans, Département du Jura",,,
0172,"Augustów, Pologne Russe",,,,"0172: Augustów, Pologne Russe",,,
0173,"Aulas, Département du Gard",3036159,44.001,3.587,"0173: Aulas, Département du Gard",,,
0174,"Aulnois, Département de la Meurthe",,,,"0174: Aulnois, Département de la Meurthe",,,
0175,"Aulnois, Département des Vosges",3036139,48.257,5.785,"0175: Aulnois, Département des Vosges",,,
0176,"Aumale, Algérie",2479161,36.148,3.691,"0176: Aumale, Algérie",,,
0177,"Auménancourt, Département de la Marne",3036112,49.383,4.067,"0177: Auménancourt, Département de la Marne",,,
0178,"Aups, Département du Var",3005825,43.138,5.983,"0178: Aups, Département du Var",,,
0179,Auray,3036059,47.670,-2.992,0179: Auray,,,
0180,"Auribeau, Département des Alpes-Maritimes",3036022,43.601,6.910,"0180: Auribeau, Département des Alpes-Maritimes",,,
0181,"Aurignac, Département de la Haute-Garonne",3036018,43.217,0.882,"0181: Aurignac, Département de la Haute-Garonne",,,
0182,"Aurillac, Département du Cantal",3036016,44.925,2.440,"0182: Aurillac, Département du Cantal",,,
0183,"Aussillon, Département du Tarn",3035991,43.503,2.368,"0183: Aussillon, Département du Tarn",,,
0184,Austria-Hungary,717582,48.100,20.783,0184: Austria-Hungary,,,
0185,"Authon, Département de l'Eure-et-Loir",,,,"0185: Authon, Département de l'Eure-et-Loir",,,
0186,Authon-la-Plaine,3035937,48.450,1.957,0186: Authon-la-Plaine,,,
0187,"Authon-la-Plaine, Département de Seine-et-Oise",,,,"0187: Authon-la-Plaine, Département de Seine-et-Oise",,,
0188,"Autichamp, Département de la Drôme",3035931,44.684,4.966,"0188: Autichamp, Département de la Drôme",,,
0189,"Autigny-la-Tour, Département des Vosges",3035928,48.399,5.759,"0189: Autigny-la-Tour, Département des Vosges",,,
0190,Autriche,2782113,47.333,13.333,0190: Autriche,,,
0191,Autriche-Hongrie,717582,48.100,20.783,0191: Autriche-Hongrie,,,
0192,"Autun, Département de Saône-et-Loire",3035883,46.951,4.299,"0192: Autun, Département de Saône-et-Loire",,,
0193,Auxerre,3035843,47.800,3.570,0193: Auxerre,,,
0194,"Auxerre, Département de l'Yonne",3035843,47.800,3.570,"0194: Auxerre, Département de l'Yonne",,,
0195,"Auxonne, Département de la Côte-d'Or",3035828,47.193,5.387,"0195: Auxonne, Département de la Côte-d'Or",,,
0196,"Auzat-le-Laquet, Département du Puy-de-Dôme",,,,"0196: Auzat-le-Laquet, Département du Puy-de-Dôme",,,
0197,"Availles, Département de la Vienne",3035776,46.121,0.655,"0197: Availles, Département de la Vienne",,,
0198,"Avelanges, Département de la Côte-d'Or",3035746,47.585,5.025,"0198: Avelanges, Département de la Côte-d'Or",,,
0199,"Avernes, Département de l'Allier",,,,"0199: Avernes, Département de l'Allier",,,
0200,"Avesnes-le-Comte, Département du Pas de Calais",3035702,50.278,2.530,"0200: Avesnes-le-Comte, Département du Pas de Calais",,,
0201,"Avignon, Département de Vaucluse",3035681,43.948,4.809,"0201: Avignon, Département de Vaucluse",,,
0202,"Avignon, Département du Vaucluse",3035681,43.948,4.809,"0202: Avignon, Département du Vaucluse",,,
0203,"Avignonet, Département de l'Isère",3035676,44.955,5.687,"0203: Avignonet, Département de l'Isère",,,
0204,"Avize, Département de la Marne",3035661,48.974,4.014,"0204: Avize, Département de la Marne",,,
0205,"Avressieux, Département de Savoie",3035628,45.573,5.695,"0205: Avressieux, Département de Savoie",,,
0206,"Ax, Département de l'Ariège",3035595,42.720,1.838,"0206: Ax, Département de l'Ariège",,,
0207,"Axat, Département de l'Aude",3035597,42.803,2.233,"0207: Axat, Département de l'Aude",,,
0208,"Ayrens, Département du Cantal",3035568,44.985,2.327,"0208: Ayrens, Département du Cantal",,,
0209,"Azelot, Département de la Meurthe",,,,"0209: Azelot, Département de la Meurthe",,,
0210,"Azolette, Département du Rhône",3035522,46.193,4.419,"0210: Azolette, Département du Rhône",,,
0211,"Baba Hassen, Algérie",2505865,36.696,2.973,"0211: Baba Hassen, Algérie",,,
0212,Bacourt,5999280,46.889,-72.824,0212: Bacourt,,,
0213,"Bacourt, Département de la Meurthe",,,,"0213: Bacourt, Département de la Meurthe",,,
0214,"Bacqueville, Département de la Seine-Inférieure",3035471,49.788,0.999,"0214: Bacqueville, Département de la Seine-Inférieure",,,
0215,"Bade-Wurtemberg, Allemagne",2825297,48.782,9.177,"0215: Bade-Wurtemberg, Allemagne",,,
0216,"Bagdad, Irak",98182,33.341,44.401,"0216: Bagdad, Irak",,,
0217,"Bages, Département de l'Aude",3035431,43.123,2.991,"0217: Bages, Département de l'Aude",,,
0218,"Bagnac, Département du Lot",3035426,44.667,2.167,"0218: Bagnac, Département du Lot",,,
0219,"Bagnères-de-Bigorre, Département des Hautes-Pyrénnées",,,,"0219: Bagnères-de-Bigorre, Département des Hautes-Pyrénnées",,,
0220,"Bagnères-de-Luchon, Département de la Haute-Garonne",3035416,42.791,0.593,"0220: Bagnères-de-Luchon, Département de la Haute-Garonne",,,
0221,"Bagnères, Département des Hautes-Pyrénées",3007622,43.125,0.384,"0221: Bagnères, Département des Hautes-Pyrénées",,,
0222,"Bagneux, Département de la Seine",3026108,48.765,2.267,"0222: Bagneux, Département de la Seine",,,
0223,"Bagnols, Département du Gard",3035396,44.160,4.618,"0223: Bagnols, Département du Gard",,,
0224,"Bagnols-sur-Cèze, Département du Gard",3035396,44.160,4.618,"0224: Bagnols-sur-Cèze, Département du Gard",,,
0225,Bailleul,3035359,50.736,2.736,0225: Bailleul,,,
0226,"Bailleul, Département du Nord",3035359,50.736,2.736,"0226: Bailleul, Département du Nord",,,
0227,"Bais, Département d'Ille-et-Vilaine",2997332,48.049,-1.331,"0227: Bais, Département d'Ille-et-Vilaine",,,
0228,"Baisieux, Département du Nord",3035304,50.608,3.253,"0228: Baisieux, Département du Nord",,,
0229,"Balbigny, Département de la Loire",3035260,45.819,4.190,"0229: Balbigny, Département de la Loire",,,
0230,"Bandol, Département du Var",3035156,43.142,5.747,"0230: Bandol, Département du Var",,,
0231,"Banne, Département de l'Ardèche",3035134,44.367,4.156,"0231: Banne, Département de l'Ardèche",,,
0232,"Bapaume, Département du Pas de Calais",3035088,50.104,2.850,"0232: Bapaume, Département du Pas de Calais",,,
0233,"Bar-le-Duc, Département de la Meuse",3034911,48.773,5.161,"0233: Bar-le-Duc, Département de la Meuse",,,
0234,"Bar-sur-Aube, Département de l'Aube",3034802,48.233,4.706,"0234: Bar-sur-Aube, Département de l'Aube",,,
0235,"Bar-sur-Seine, Département de l'Aube",3034800,48.113,4.377,"0235: Bar-sur-Seine, Département de l'Aube",,,
0236,Barastre,3035062,50.076,2.932,0236: Barastre,,,
0237,"Barastre, Département du Pas-de-Calais",3035062,50.076,2.932,"0237: Barastre, Département du Pas-de-Calais",,,
0238,"Barbar, Egypte",359106,29.264,33.732,"0238: Barbar, Egypte",,,
0239,"Barbentane, Département des Bouches-du-Rhône",3035036,43.899,4.748,"0239: Barbentane, Département des Bouches-du-Rhône",,,
0240,Barbières,3035014,44.958,5.139,0240: Barbières,,,
0241,"Barbières, Département de la Drôme",3035014,44.958,5.139,"0241: Barbières, Département de la Drôme",,,
0242,"Barcugnan, Département du Gers",3034985,43.379,0.408,"0242: Barcugnan, Département du Gers",,,
0243,"Barentin, Département de la Seine-Inférieure",3034951,49.545,0.955,"0243: Barentin, Département de la Seine-Inférieure",,,
0244,"Bargemon, Département du Var",3034939,43.619,6.550,"0244: Bargemon, Département du Var",,,
0245,"Barisey la Côte, Département de la Meurthe",3034926,48.544,5.843,"0245: Barisey la Côte, Département de la Meurthe",,,
0246,"Barjols, Département du Var",3034918,43.558,6.008,"0246: Barjols, Département du Var",,,
0247,"Barquet, Département de l'Eure",3034870,49.046,0.857,"0247: Barquet, Département de l'Eure",,,
0248,Barr,3034868,48.408,7.449,0248: Barr,,,
0249,"Barr, Département du Bas-Rhin",3034868,48.408,7.449,"0249: Barr, Département du Bas-Rhin",,,
0250,"Barrettali, Département de la Haute-Corse",6620212,42.877,9.355,"0250: Barrettali, Département de la Haute-Corse",,,
0251,"Bartenheim, Département du Haut-Rhin",3034797,47.634,7.480,"0251: Bartenheim, Département du Haut-Rhin",,,
0252,Basse Egypte,2959378,52.452,7.852,0252: Basse Egypte,,,
0253,"Basse-Terre, Guadeloupe",3578682,16.192,-61.591,"0253: Basse-Terre, Guadeloupe",,,
0254,"Basse-Vigneulles, Département de la Moselle",,,,"0254: Basse-Vigneulles, Département de la Moselle",,,
0255,"Bassous, Département du Gers",,,,"0255: Bassous, Département du Gers",,,
0256,"Bassurels, Département de la Lozère",3034650,44.183,3.627,"0256: Bassurels, Département de la Lozère",,,
0257,"Bastia, Département de la Corse",3034640,42.703,9.450,"0257: Bastia, Département de la Corse",,,
0258,"Bastia, Département de la Haute-Corse",3034640,42.703,9.450,"0258: Bastia, Département de la Haute-Corse",,,
0259,"Batignolles, Département de la Seine",,,,"0259: Batignolles, Département de la Seine",,,
0260,Batilly (Meurthe-et-Moselle),3034608,49.174,5.969,0260: Batilly (Meurthe-et-Moselle),,,
0261,"Batna, Algérie",2505572,35.556,6.174,"0261: Batna, Algérie",,,
0262,Baud,1276686,20.838,84.326,0262: Baud,,,
0263,"Baud, Département du Morbihan",3034582,47.875,-3.018,"0263: Baud, Département du Morbihan",,,
0264,"Baugé, Département du Maine et Loire",,,,"0264: Baugé, Département du Maine et Loire",,,
0265,Bavans,3034515,47.485,6.733,0265: Bavans,,,
0266,"Bavans, Département du Doubs",3034515,47.485,6.733,"0266: Bavans, Département du Doubs",,,
0267,Bavière,2867714,48.137,11.575,0267: Bavière,,,
0268,"Bavilliers, Département du Haut-Rhin",,,,"0268: Bavilliers, Département du Haut-Rhin",,,
0269,Bayers,3034485,45.922,0.229,0269: Bayers,,,
0270,"Bayeux, Département du Calvados",3034483,49.277,-0.704,"0270: Bayeux, Département du Calvados",,,
0271,Bayonne,3034475,43.493,-1.476,0271: Bayonne,,,
0272,"Bayonne, Département des Basses-Pyrénées",3034475,43.493,-1.476,"0272: Bayonne, Département des Basses-Pyrénées",,,
0273,"Bayonne, Département des Basses-Pyrénnées",,,,"0273: Bayonne, Département des Basses-Pyrénnées",,,
0274,"Bayonne, Département des Pyrénnées-Atlantique",,,,"0274: Bayonne, Département des Pyrénnées-Atlantique",,,
0275,"Béage, Département de l'Ardèche",3005334,44.849,4.119,"0275: Béage, Département de l'Ardèche",,,
0276,"Beaucaire, Département du Gard",3034382,43.808,4.644,"0276: Beaucaire, Département du Gard",,,
0277,Beaucourt,3034341,50.081,2.687,0277: Beaucourt,,,
0278,Beaucroissant,3034338,45.343,5.471,0278: Beaucroissant,,,
0279,"Beaucroissant, Département de l'Isère",3034338,45.343,5.471,"0279: Beaucroissant, Département de l'Isère",,,
0280,"Beaulandais, Département de l'Orne",6450181,48.545,-0.543,"0280: Beaulandais, Département de l'Orne",,,
0281,"Beaulieu, Département de l'Hérault",3034274,43.729,4.022,"0281: Beaulieu, Département de l'Hérault",,,
0282,"Beaulieu, Département de la Corrèze",3034241,44.978,1.838,"0282: Beaulieu, Département de la Corrèze",,,
0283,"Beaumont, Département de la Meuse",6619423,49.258,5.407,"0283: Beaumont, Département de la Meuse",,,
0284,"Beaumont, Département du Puy de Dôme",3034198,45.752,3.083,"0284: Beaumont, Département du Puy de Dôme",,,
0285,"Beaune, Département de la Côte-d'Or",3034126,47.024,4.839,"0285: Beaune, Département de la Côte-d'Or",,,
0286,"Beaurepaire, Département de l'Isère",3034064,45.337,5.049,"0286: Beaurepaire, Département de l'Isère",,,
0287,"Beaurepaire, Département de Saône-et-Loire",3034056,46.669,5.388,"0287: Beaurepaire, Département de Saône-et-Loire",,,
0288,Beaurieux,3034051,49.393,3.740,0288: Beaurieux,,,
0289,Beausset,5999958,56.384,-70.027,0289: Beausset,,,
0290,"Beausset, Département du Var",3005326,43.198,5.803,"0290: Beausset, Département du Var",,,
0291,Beauvais,3034006,49.433,2.083,0291: Beauvais,,,
0292,"Beauvais, Département de l'Oise",3034006,49.433,2.083,"0292: Beauvais, Département de l'Oise",,,
0293,Beauvoir,3033969,50.217,2.171,0293: Beauvoir,,,
0294,"Beauvoir, Département de la Manche",3033976,48.597,-1.505,"0294: Beauvoir, Département de la Manche",,,
0295,"Beauzac, Département de Haute-Loire",3033955,45.259,4.099,"0295: Beauzac, Département de Haute-Loire",,,
0296,"Bec-de-Mortagne, Département de la Seine-Inférieure",3033944,49.701,0.449,"0296: Bec-de-Mortagne, Département de la Seine-Inférieure",,,
0297,"Beccas, Département du Gers",3033948,43.431,0.153,"0297: Beccas, Département du Gers",,,
0298,"Bédarieux, Département de l'Hérault",3033913,43.616,3.157,"0298: Bédarieux, Département de l'Hérault",,,
0299,Bedrechine (Egypte),,,,0299: Bedrechine (Egypte),,,
0300,"Bègles, Département de la Gironde",3033881,44.808,-0.548,"0300: Bègles, Département de la Gironde",,,
0301,Behera,361370,30.600,30.200,0301: Behera,,,
0302,Belfort,3033791,47.642,6.854,0302: Belfort,,,
0303,"Belfort, Département du Doubs",,,,"0303: Belfort, Département du Doubs",,,
0304,"Belfort, Département du Haut-Rhin",,,,"0304: Belfort, Département du Haut-Rhin",,,
0305,Belfort (Haut-Rhin),,,,0305: Belfort (Haut-Rhin),,,
0306,Belgique,2802361,50.750,4.500,0306: Belgique,,,
0307,"Bellac, Département de la Haute-Vienne",3033766,46.122,1.049,"0307: Bellac, Département de la Haute-Vienne",,,
0308,"Belle-Île, Département du Morbihan",3033682,47.333,-3.187,"0308: Belle-Île, Département du Morbihan",,,
0309,"Bellefontaine, Département des Vosges",3033708,48.013,6.443,"0309: Bellefontaine, Département des Vosges",,,
0310,"Bellegarde, Département de la Creuse",2976828,45.972,2.303,"0310: Bellegarde, Département de la Creuse",,,
0311,"Bellegarde, Département du Gers",3033692,43.417,0.617,"0311: Bellegarde, Département du Gers",,,
0312,"Bellegarde-en-Marche, Département de la Creuse",3033687,45.982,2.295,"0312: Bellegarde-en-Marche, Département de la Creuse",,,
0313,"Belley, Département de l'Ain",3033625,45.759,5.688,"0313: Belley, Département de l'Ain",,,
0314,"Bellou, Département de l'Orne",3033602,48.425,0.766,"0314: Bellou, Département de l'Orne",,,
0315,"Belz, Département du Morbihan",3033534,47.675,-3.168,"0315: Belz, Département du Morbihan",,,
0316,"Benquet, Département des Landes",3033453,43.830,-0.501,"0316: Benquet, Département des Landes",,,
0317,Béost,3033443,42.993,-0.415,0317: Béost,,,
0318,"Béost, Département des Basses-Pyrénées",3033443,42.993,-0.415,"0318: Béost, Département des Basses-Pyrénées",,,
0319,Berber,377690,18.022,33.983,0319: Berber,,,
0320,"Berbiguières, Département de la Dordogne",3033430,44.834,1.042,"0320: Berbiguières, Département de la Dordogne",,,
0321,"Bercy (Canton de Charenton), Département de la Seine",,,,"0321: Bercy (Canton de Charenton), Département de la Seine",,,
0322,"Bercy-Paris, Département de la Seine",,,,"0322: Bercy-Paris, Département de la Seine",,,
0323,"Bérengeville-la-Rivière, Département de l'Eure",,,,"0323: Bérengeville-la-Rivière, Département de l'Eure",,,
0324,"Bergerac, Département de la Dordogne",3033391,44.851,0.482,"0324: Bergerac, Département de la Dordogne",,,
0325,"Bergheim, Département du Haut Rhin",3033382,48.205,7.363,"0325: Bergheim, Département du Haut Rhin",,,
0326,Bergues,3033363,50.969,2.432,0326: Bergues,,,
0327,"Bergues, Département du Nord",3033363,50.969,2.432,"0327: Bergues, Département du Nord",,,
0328,"Bermerain, Département du Nord",3033339,50.252,3.532,"0328: Bermerain, Département du Nord",,,
0329,Berre (Bouches-du-Rhône),3033241,43.478,5.170,0329: Berre (Bouches-du-Rhône),,,
0330,"Berzème, Département de l'Ardèche",3033132,44.652,4.565,"0330: Berzème, Département de l'Ardèche",,,
0331,Besançon,3033123,47.249,6.018,0331: Besançon,,,
0332,"Besançon, Département du Doubs",3033123,47.249,6.018,"0332: Besançon, Département du Doubs",,,
0333,"Bessan, Département de l'Hérault",3033099,43.362,3.423,"0333: Bessan, Département de l'Hérault",,,
0334,"Besse, Département du Puy-de-Dôme",3033074,45.517,2.933,"0334: Besse, Département du Puy-de-Dôme",,,
0335,Betschdorf,2989816,48.898,7.902,0335: Betschdorf,,,
0336,"Betschdorf, Département du Bas-Rhin",2989816,48.898,7.902,"0336: Betschdorf, Département du Bas-Rhin",,,
0337,"Beuste, Département des Basses Pyrénées",3032928,43.217,-0.233,"0337: Beuste, Département des Basses Pyrénées",,,
0338,"Beuzec-Cap-Sizun, Département du Finistère",3032898,48.076,-4.512,"0338: Beuzec-Cap-Sizun, Département du Finistère",,,
0339,"Beuzevillette, Département de la Seine-Inférieure",3032890,49.571,0.537,"0339: Beuzevillette, Département de la Seine-Inférieure",,,
0340,"Beynat, Département de la Corrèze",3032875,45.124,1.723,"0340: Beynat, Département de la Corrèze",,,
0341,"Beyrouth, Liban",276781,33.893,35.502,"0341: Beyrouth, Liban",,,
0342,"Beyrouth, Syrie",,,,"0342: Beyrouth, Syrie",,,
0343,"Béziers, Département de l'Hérault",3032833,43.341,3.214,"0343: Béziers, Département de l'Hérault",,,
0344,"Bézues-Bajon, Département du Gers",3032821,43.384,0.598,"0344: Bézues-Bajon, Département du Gers",,,
0345,Biba,358869,28.949,30.972,0345: Biba,,,
0346,Biganos,3032688,44.645,-0.974,0346: Biganos,,,
0347,"Biganos, Département de la Gironde",3032688,44.645,-0.974,"0347: Biganos, Département de la Gironde",,,
0348,Bikfaya,276605,33.922,35.683,0348: Bikfaya,,,
0349,"Bilbao, Espagne",3128026,43.263,-2.925,"0349: Bilbao, Espagne",,,
0350,Bilbéis (Basse-Egypte),,,,0350: Bilbéis (Basse-Egypte),,,
0351,Billième,3032635,45.721,5.811,0351: Billième,,,
0352,"Binic, Département des Côtes-du-Nord",3032600,48.601,-2.826,"0352: Binic, Département des Côtes-du-Nord",,,
0353,"Bio, Département du Lot",3032592,44.782,1.785,"0353: Bio, Département du Lot",,,
0354,"Biozat, Département de l'Allier",3032574,46.077,3.272,"0354: Biozat, Département de l'Allier",,,
0355,Birket El Sab,358769,30.629,31.082,0355: Birket El Sab,,,
0356,"Birlenbach, Département du Bas Rhin",3020860,48.983,7.867,"0356: Birlenbach, Département du Bas Rhin",,,
0357,"Birmingham, Angleterre",2655603,52.481,-1.900,"0357: Birmingham, Angleterre",,,
0358,"Bischheim, Département du Bas-Rhin",3032551,48.616,7.753,"0358: Bischheim, Département du Bas-Rhin",,,
0359,"Biskra, Algérie",2503826,34.850,5.728,"0359: Biskra, Algérie",,,
0360,"Biskra, Département de Constantine",,,,"0360: Biskra, Département de Constantine",,,
0361,"Bistroff, Département de la Moselle",3032520,48.992,6.716,"0361: Bistroff, Département de la Moselle",,,
0362,"Biviers, Département de l'Isère",3032505,45.233,5.800,"0362: Biviers, Département de l'Isère",,,
0363,"Blanguy, Département de la Seine inférieure",,,,"0363: Blanguy, Département de la Seine inférieure",,,
0364,"Blaye, Département de la Gironde",2967108,45.128,-0.662,"0364: Blaye, Département de la Gironde",,,
0365,Bléneau,3032278,47.700,2.950,0365: Bléneau,,,
0366,"Blida, Algérie",2503769,36.470,2.828,"0366: Blida, Algérie",,,
0367,"Blodelsheim, Département de l'Alsace",,,,"0367: Blodelsheim, Département de l'Alsace",,,
0368,"Blois, Département du Loir-et-Cher",3032213,47.594,1.329,"0368: Blois, Département du Loir-et-Cher",,,
0369,"Bohars, Département du Finistère",3032125,48.430,-4.513,"0369: Bohars, Département du Finistère",,,
0370,Bohême,6001093,45.884,-76.111,0370: Bohême,,,
0371,"Bois-d'Oingt, Département du Rhône",6619540,45.917,4.583,"0371: Bois-d'Oingt, Département du Rhône",,,
0372,"Bois-Normand-la-Campagne, Département de l'Eure",,,,"0372: Bois-Normand-la-Campagne, Département de l'Eure",,,
0373,"Boismont, Département de la Moselle",,,,"0373: Boismont, Département de la Moselle",,,
0374,"Boisset-lès-Montrond, Département de la Loire",3031939,45.627,4.213,"0374: Boisset-lès-Montrond, Département de la Loire",,,
0375,"Boissezon, Département du Tarn",3031924,43.576,2.380,"0375: Boissezon, Département du Tarn",,,
0376,Bolbec,3031871,49.573,0.473,0376: Bolbec,,,
0377,"Bollène, Département du Vaucluse",3031868,44.281,4.749,"0377: Bollène, Département du Vaucluse",,,
0378,"Bollwiller, Département du Haut-Rhin",3031864,47.858,7.262,"0378: Bollwiller, Département du Haut-Rhin",,,
0379,Bologne,3181928,44.494,11.339,0379: Bologne,,,
0380,"Bologne, États Romains",,,,"0380: Bologne, États Romains",,,
0381,"Bologne, Italie",3181928,44.494,11.339,"0381: Bologne, Italie",,,
0382,"Bombay, Inde",1275339,19.073,72.883,"0382: Bombay, Inde",,,
0383,"Bône, Algérie",2506999,36.900,7.767,"0383: Bône, Algérie",,,
0384,"Bône, Département d'Algérie",2506999,36.900,7.767,"0384: Bône, Département d'Algérie",,,
0385,"Bône, Département de Constantine",,,,"0385: Bône, Département de Constantine",,,
0386,Bonha,2270761,39.868,-8.633,0386: Bonha,,,
0387,"Bonifacio, Département de la Corse",3031801,41.387,9.159,"0387: Bonifacio, Département de la Corse",,,
0388,Bonloc,3031792,43.368,-1.266,0388: Bonloc,,,
0389,"Bonloc, Département des Basses-Pyrénées",3031792,43.368,-1.266,"0389: Bonloc, Département des Basses-Pyrénées",,,
0390,Bonneuil,3031709,48.770,2.479,0390: Bonneuil,,,
0391,"Bonneuil, Département de l'Oise",3031711,49.679,2.237,"0391: Bonneuil, Département de l'Oise",,,
0392,"Bonneuil-Matours, Département de Vienne",3031710,46.682,0.570,"0392: Bonneuil-Matours, Département de Vienne",,,
0393,"Bonneville, Département de la Manche",3010974,49.394,-1.455,"0393: Bonneville, Département de la Manche",,,
0394,"Bonnières, Département de la Seine-et-Oise",,,,"0394: Bonnières, Département de la Seine-et-Oise",,,
0395,Bordeaux,3031582,44.840,-0.581,0395: Bordeaux,,,
0396,"Bordeaux, Département de Gironde",3031582,44.840,-0.581,"0396: Bordeaux, Département de Gironde",,,
0397,"Bordeaux, Département de la Gironde",3031582,44.840,-0.581,"0397: Bordeaux, Département de la Gironde",,,
0398,Bordeaux (Gironde),3031582,44.840,-0.581,0398: Bordeaux (Gironde),,,
0399,"Borée, Département de l'Ardèche",3031549,44.898,4.240,"0399: Borée, Département de l'Ardèche",,,
0400,"Bosdarros, Département des Basses Pyrénées",3031469,43.217,-0.367,"0400: Bosdarros, Département des Basses Pyrénées",,,
0401,"Boufarik (Alger), Algérie",,,,"0401: Boufarik (Alger), Algérie",,,
0402,"Bouffry, Département de Loir et Cher",3031290,48.007,1.098,"0402: Bouffry, Département de Loir et Cher",,,
0403,"Bougé-Chambalud, Département de l'Isère",3031284,45.331,4.900,"0403: Bougé-Chambalud, Département de l'Isère",,,
0404,"Bouin, Département de la Vendée",3031222,46.973,-1.998,"0404: Bouin, Département de la Vendée",,,
0405,"Boujie, Algérie",,,,"0405: Boujie, Algérie",,,
0406,Boulac (Faubourg du Caire),,,,0406: Boulac (Faubourg du Caire),,,
0407,Boulak,358683,30.060,31.231,0407: Boulak,,,
0408,"Boulaq, Egypte",358683,30.060,31.231,"0408: Boulaq, Egypte",,,
0409,Boulogne,3031137,48.835,2.241,0409: Boulogne,,,
0410,"Boulogne, Département de la Seine",7838666,48.784,2.225,"0410: Boulogne, Département de la Seine",,,
0411,Boulogne (Seine),3031137,48.835,2.241,0411: Boulogne (Seine),,,
0412,"Boulogne-sur-Mer, Département du Pas-de-Calais",3031133,50.726,1.614,"0412: Boulogne-sur-Mer, Département du Pas-de-Calais",,,
0413,"Bourbon-l'Archambault, Département de l'Allier",3031089,46.583,3.057,"0413: Bourbon-l'Archambault, Département de l'Allier",,,
0414,"Bourbon-Lancy, Département de Saône-et-Loire",3031090,46.622,3.770,"0414: Bourbon-Lancy, Département de Saône-et-Loire",,,
0415,"Bourbon Saint Benoit, Ile Bourbon (La Réunion)",,,,"0415: Bourbon Saint Benoit, Ile Bourbon (La Réunion)",,,
0416,Bourbonne,3031086,47.953,5.748,0416: Bourbonne,,,
0417,"Bourbonne, Département de la Haute-Marne",3031086,47.953,5.748,"0417: Bourbonne, Département de la Haute-Marne",,,
0418,"Bourbourg, Département du Nord",3031085,50.948,2.196,"0418: Bourbourg, Département du Nord",,,
0419,"Bourg-Argental, Département de la Loire",3031030,45.299,4.568,"0419: Bourg-Argental, Département de la Loire",,,
0420,"Bourg-Blanc, Département du Finistère",3031027,48.499,-4.504,"0420: Bourg-Blanc, Département du Finistère",,,
0421,"Bourg-de-Péage, Département de la Drôme",3031020,45.032,5.050,"0421: Bourg-de-Péage, Département de la Drôme",,,
0422,"Bourg, Département de l'Ain",3031009,46.206,5.226,"0422: Bourg, Département de l'Ain",,,
0423,"Bourg-du-Péage, Département de la Drôme",3031020,45.032,5.050,"0423: Bourg-du-Péage, Département de la Drôme",,,
0424,"Bourg-Lastic, Département du Puy de Dôme",3030989,45.647,2.558,"0424: Bourg-Lastic, Département du Puy de Dôme",,,
0425,"Bourg-lès-Valence, Département de la Drôme",3030985,44.947,4.895,"0425: Bourg-lès-Valence, Département de la Drôme",,,
0426,"Bourg-Saint-Andéol, Département de l'Ardèche",3030953,44.373,4.644,"0426: Bourg-Saint-Andéol, Département de l'Ardèche",,,
0427,"Bourges, Département du Cher",3031005,47.083,2.400,"0427: Bourges, Département du Cher",,,
0428,"Bourgneuf, Département de la Charente-Inférieure",3030979,46.168,-1.021,"0428: Bourgneuf, Département de la Charente-Inférieure",,,
0429,"Bourgoin, Département de l'Isère",6615539,45.586,5.274,"0429: Bourgoin, Département de l'Isère",,,
0430,"Bourgueil, Département d'Indre et Loire",3030944,47.283,0.166,"0430: Bourgueil, Département d'Indre et Loire",,,
0431,"Bourgueil, Département de l'Indre-et-Loire",3003046,47.299,0.134,"0431: Bourgueil, Département de l'Indre-et-Loire",,,
0432,Bourguignon,3030939,47.506,5.969,0432: Bourguignon,,,
0433,"Bousse, Département de la Moselle",3030819,49.278,6.197,"0433: Bousse, Département de la Moselle",,,
0434,"Boussenois, Département de la Côte d'Or",3030814,47.629,5.210,"0434: Boussenois, Département de la Côte d'Or",,,
0435,"Boussy, Département de la Haute-Savoie",3030788,45.855,5.982,"0435: Boussy, Département de la Haute-Savoie",,,
0436,"Boutx, Département de la Haute Garonne",3030740,42.916,0.721,"0436: Boutx, Département de la Haute Garonne",,,
0437,"Bouverans, Département du Doubs",3030733,46.854,6.208,"0437: Bouverans, Département du Doubs",,,
0438,Bouzonville,3030668,49.292,6.534,0438: Bouzonville,,,
0439,"Bouzonville, Département de la Moselle",3030668,49.292,6.534,"0439: Bouzonville, Département de la Moselle",,,
0440,Brandeville,3030564,49.395,5.305,0440: Brandeville,,,
0441,"Brando, Département de la Corse",3030561,42.767,9.450,"0441: Brando, Département de la Corse",,,
0442,"Brantôme, Département de la Dordogne",3030534,45.361,0.654,"0442: Brantôme, Département de la Dordogne",,,
0443,"Brassac, Département de l'Ariège",3030521,42.945,1.537,"0443: Brassac, Département de l'Ariège",,,
0444,"Brassac, Département du Tran",,,,"0444: Brassac, Département du Tran",,,
0445,Bray-sur-Seine,3030460,48.414,3.239,0445: Bray-sur-Seine,,,
0446,"Bray-sur-Seine, Département de Seine et Marne",3030460,48.414,3.239,"0446: Bray-sur-Seine, Département de Seine et Marne",,,
0447,"Bréal-sous-Vitré, Département d'Ille-et-Vilaine",3030455,48.103,-1.061,"0447: Bréal-sous-Vitré, Département d'Ille-et-Vilaine",,,
0448,Brecé,3030444,48.108,-1.481,0448: Brecé,,,
0449,"Brecé, Département de la Mayenne",6613246,48.398,-0.789,"0449: Brecé, Département de la Mayenne",,,
0450,"Bréménil, Département de la Meurthe",,,,"0450: Bréménil, Département de la Meurthe",,,
0451,Brest,629634,52.098,23.688,0451: Brest,,,
0452,"Brest, Département du Finistère",3030300,48.390,-4.486,"0452: Brest, Département du Finistère",,,
0453,"Bretignolles, Département de la Vendée",3030264,46.633,-1.867,"0453: Bretignolles, Département de la Vendée",,,
0454,"Breuil-le-Sec, Département de L'Oise",3030205,49.371,2.451,"0454: Breuil-le-Sec, Département de L'Oise",,,
0455,Briançon,3030142,44.900,6.642,0455: Briançon,,,
0456,"Briançon, Département des Hautes-Alpes",3030142,44.900,6.642,"0456: Briançon, Département des Hautes-Alpes",,,
0457,"Bricquebec, Département de la Manche",3030120,49.470,-1.633,"0457: Bricquebec, Département de la Manche",,,
0458,"Brie-Comte-Robert, Département de Seine-et-Marne",3030101,48.692,2.611,"0458: Brie-Comte-Robert, Département de Seine-et-Marne",,,
0459,"Brie, Département de la Charente",6694763,45.729,0.219,"0459: Brie, Département de la Charente",,,
0460,Briec,3030102,48.102,-3.998,0460: Briec,,,
0461,"Briec, Département du Finistère",3030102,48.102,-3.998,"0461: Briec, Département du Finistère",,,
0462,"Briel, Département de l'Aube",3030098,48.209,4.356,"0462: Briel, Département de l'Aube",,,
0463,"Brignoles, Département du Var",3030057,43.406,6.062,"0463: Brignoles, Département du Var",,,
0464,"Brignolles, Département du Var",,,,"0464: Brignolles, Département du Var",,,
0465,Briod,3030021,46.660,5.623,0465: Briod,,,
0466,"Briod, Département du Jura",3030021,46.660,5.623,"0466: Briod, Département du Jura",,,
0467,"Briqueras, Italie",,,,"0467: Briqueras, Italie",,,
0468,"Brive, Département de la Corèze",,,,"0468: Brive, Département de la Corèze",,,
0469,"Brive, Département de la Corrèze",3029974,45.159,1.533,"0469: Brive, Département de la Corrèze",,,
0470,"Brouilla, Département Pyrénées-Orientales",3029883,42.567,2.903,"0470: Brouilla, Département Pyrénées-Orientales",,,
0471,"Broussey, Département de la Meuse",3029859,48.817,5.700,"0471: Broussey, Département de la Meuse",,,
0472,"Bruges, Département des Basses-Pyrénées",3029800,43.133,-0.300,"0472: Bruges, Département des Basses-Pyrénées",,,
0473,"Brûlon, Département de la Sarthe",3029775,47.967,-0.233,"0473: Brûlon, Département de la Sarthe",,,
0474,"Bruxelles, Belgique alors département de la Dyle",,,,"0474: Bruxelles, Belgique alors département de la Dyle",,,
0475,"Bulgnéville, Département des Vosges",3029580,48.207,5.834,"0475: Bulgnéville, Département des Vosges",,,
0476,"Bully, Département du Rhône",3029570,45.851,4.583,"0476: Bully, Département du Rhône",,,
0477,"Bult, Département des Vosges",3029563,48.294,6.606,"0477: Bult, Département des Vosges",,,
0478,Burdignin,3029543,46.221,6.424,0478: Burdignin,,,
0479,"Burdignin, Département de la Haute-Savoie",3029543,46.221,6.424,"0479: Burdignin, Département de la Haute-Savoie",,,
0480,"Burg, Département des Hautes Pyrénées",3029516,43.190,0.325,"0480: Burg, Département des Hautes Pyrénées",,,
0481,"Bussang, Département des Vosges",3029462,47.884,6.853,"0481: Bussang, Département des Vosges",,,
0482,"Bussière, Département de la Creuse",3029421,46.402,2.134,"0482: Bussière, Département de la Creuse",,,
0483,Buxières,3029355,46.468,2.960,0483: Buxières,,,
0484,"Buxières, Département de l'Allier",3029355,46.468,2.960,"0484: Buxières, Département de l'Allier",,,
0485,"Buxières-lès-Villiers, Département de la Haute-Marne",3029354,48.105,5.037,"0485: Buxières-lès-Villiers, Département de la Haute-Marne",,,
0486,"Buxy, Département de la Saône-et-Loire",,,,"0486: Buxy, Département de la Saône-et-Loire",,,
0487,"Buxy, Département de Saône-et-Loire",3029350,46.714,4.704,"0487: Buxy, Département de Saône-et-Loire",,,
0488,"Buzeu, Valachie",,,,"0488: Buzeu, Valachie",,,
0489,"Cabasse, Département du Var",3029306,43.426,6.219,"0489: Cabasse, Département du Var",,,
0490,"Cadagne, Département du Vaucluse",,,,"0490: Cadagne, Département du Vaucluse",,,
0491,"Cadenet, Département du Vaucluse",3029256,43.735,5.373,"0491: Cadenet, Département du Vaucluse",,,
0492,"Cadière, Département du Var",3010653,43.195,5.754,"0492: Cadière, Département du Var",,,
0493,"Cadix, Espagne",2520600,36.527,-6.289,"0493: Cadix, Espagne",,,
0494,"Caen, Département du Calvados",3029241,49.186,-0.359,"0494: Caen, Département du Calvados",,,
0495,"Cagnano, Département de la Corse",6620213,42.878,9.454,"0495: Cagnano, Département de la Corse",,,
0496,"Cagnes, Département des Alpes-Maritimes",3029227,43.664,7.148,"0496: Cagnes, Département des Alpes-Maritimes",,,
0497,Cagnotte,3029224,43.595,-1.068,0497: Cagnotte,,,
0498,"Cagnotte, Département des Landes",3029224,43.595,-1.068,"0498: Cagnotte, Département des Landes",,,
0499,"Cahors, Département du Lot",3029213,44.449,1.437,"0499: Cahors, Département du Lot",,,
0500,Caire,360630,30.063,31.250,0500: Caire,,,
0501,"Caire, Egypte",360630,30.063,31.250,"0501: Caire, Egypte",,,
0502,"Cajarc, Département du Lot",3029168,44.485,1.843,"0502: Cajarc, Département du Lot",,,
0503,"Calais, Département du Pas-de-Calais",3029162,50.952,1.856,"0503: Calais, Département du Pas-de-Calais",,,
0504,"Calenzana, Département de la Corse",3029140,42.509,8.855,"0504: Calenzana, Département de la Corse",,,
0505,"Callas, Département du Var",3029125,43.593,6.538,"0505: Callas, Département du Var",,,
0506,"Caltanizzetta, Italie (Sicile)",,,,"0506: Caltanizzetta, Italie (Sicile)",,,
0507,"Calvi, Département de la Corse",6299393,42.531,8.793,"0507: Calvi, Département de la Corse",,,
0508,"Camaret, Département du Vaucluse",3029069,44.164,4.873,"0508: Camaret, Département du Vaucluse",,,
0509,"Cambo, Département des Basses Pyrénées",3029041,43.359,-1.401,"0509: Cambo, Département des Basses Pyrénées",,,
0510,"Cambrai, Département du Nord",3029030,50.176,3.235,"0510: Cambrai, Département du Nord",,,
0511,"Camors, Département du Morbihan",3029002,47.847,-3.000,"0511: Camors, Département du Morbihan",,,
0512,"Campagne, Département du Pas-de-Calais",3028985,50.613,1.995,"0512: Campagne, Département du Pas-de-Calais",,,
0513,"Campan, Département des Hautes-Pyrénées",3028976,43.016,0.178,"0513: Campan, Département des Hautes-Pyrénées",,,
0514,Campbon,3028966,47.413,-1.969,0514: Campbon,,,
0515,"Campbon, Département de la Loire inférieure",3028966,47.413,-1.969,"0515: Campbon, Département de la Loire inférieure",,,
0516,"Camporosso, Rivière de Gênes",,,,"0516: Camporosso, Rivière de Gênes",,,
0517,Canal de Suez,,,,0517: Canal de Suez,,,
0518,Canal Maritime de Suez,,,,0518: Canal Maritime de Suez,,,
0519,Cancale,1547047,-48.916,69.596,0519: Cancale,,,
0520,"Cancale, Département de l'Ille et Vilaine",,,,"0520: Cancale, Département de l'Ille et Vilaine",,,
0521,"Candie, Ile de Crète",,,,"0521: Candie, Ile de Crète",,,
0522,"Cannes, Département des Alpes-Maritimes",3028808,43.551,7.013,"0522: Cannes, Département des Alpes-Maritimes",,,
0523,"Cannes, Département du Var",,,,"0523: Cannes, Département du Var",,,
0524,Cannet,3004871,43.577,7.019,0524: Cannet,,,
0525,"Cannet, Département du Var",3004870,43.392,6.340,"0525: Cannet, Département du Var",,,
0526,"Canton de Neuchâtel, Suisse",2659496,46.992,6.931,"0526: Canton de Neuchâtel, Suisse",,,
0527,"Canton de Vaud, Suisse",2659994,46.516,6.633,"0527: Canton de Vaud, Suisse",,,
0528,"Canton des Grisons, Suisse",2660522,46.659,9.623,"0528: Canton des Grisons, Suisse",,,
0529,Capbreton,3028745,43.642,-1.428,0529: Capbreton,,,
0530,"Capbreton, Département des Landes",3028745,43.642,-1.428,"0530: Capbreton, Département des Landes",,,
0531,Capendu,3028722,43.186,2.557,0531: Capendu,,,
0532,"Capendu, Département de l'Aude",3028722,43.186,2.557,"0532: Capendu, Département de l'Aude",,,
0533,"Capestang, Département de l'Hérault",3028720,43.328,3.044,"0533: Capestang, Département de l'Hérault",,,
0534,"Caramanie, Tarsous",,,,"0534: Caramanie, Tarsous",,,
0535,"Carcans, Département de la Gironde",3028644,45.099,-1.117,"0535: Carcans, Département de la Gironde",,,
0536,Carcassonne,3028641,43.214,2.352,0536: Carcassonne,,,
0537,"Carcassonne, Département de l'Aude",3028641,43.214,2.352,"0537: Carcassonne, Département de l'Aude",,,
0538,"Carcheto, Département de la Corse",6616387,42.365,9.366,"0538: Carcheto, Département de la Corse",,,
0539,"Carisey, Département de l'Yonne",3028598,47.924,3.846,"0539: Carisey, Département de l'Yonne",,,
0540,"Carmaux, Département du Tarn",3028580,44.051,2.158,"0540: Carmaux, Département du Tarn",,,
0541,"Carnac, Département du Morbihan",3028575,47.584,-3.079,"0541: Carnac, Département du Morbihan",,,
0542,"Carnoules, Département du Var",3028558,43.302,6.187,"0542: Carnoules, Département du Var",,,
0543,"Carouge, Suisse",2661265,46.181,6.139,"0543: Carouge, Suisse",,,
0544,"Carpentras, Département du Vaucluse",3028542,44.055,5.048,"0544: Carpentras, Département du Vaucluse",,,
0545,"Casset, Département des Hautes Alpes",3004843,44.987,6.483,"0545: Casset, Département des Hautes Alpes",,,
0546,Cassis,3028431,43.216,5.539,0546: Cassis,,,
0547,"Cassis, Département des Bouches du Rhône",3028431,43.216,5.539,"0547: Cassis, Département des Bouches du Rhône",,,
0548,"Cassis, Département du Var",,,,"0548: Cassis, Département du Var",,,
0549,"Cast, Département du Finistère",3028425,48.157,-4.139,"0549: Cast, Département du Finistère",,,
0550,Casteil,3028400,42.530,2.392,0550: Casteil,,,
0551,"Casteil, Département des Pyrénées Orientales",3028400,42.530,2.392,"0551: Casteil, Département des Pyrénées Orientales",,,
0552,"Castelbiague, Département de la Haute-Garonne",3028394,43.036,0.925,"0552: Castelbiague, Département de la Haute-Garonne",,,
0553,"Castelfranc, Département du Lot",3028390,44.501,1.223,"0553: Castelfranc, Département du Lot",,,
0554,"Castelnau, Département des Hautes-Pyrénées",3028333,43.581,-0.029,"0554: Castelnau, Département des Hautes-Pyrénées",,,
0555,"Castelnau-Durban, Département de l'Ariège",3028338,43.001,1.342,"0555: Castelnau-Durban, Département de l'Ariège",,,
0556,"Castelnau-Magnoac, Département des Hautes-Pyrénées",3028336,43.294,0.506,"0556: Castelnau-Magnoac, Département des Hautes-Pyrénées",,,
0557,"Castelnau-Tursan, Département des Landes",3028330,43.658,-0.408,"0557: Castelnau-Tursan, Département des Landes",,,
0558,"Castelnau-Valence, Département du Gard",2971055,44.000,4.250,"0558: Castelnau-Valence, Département du Gard",,,
0559,"Castelneau, Département du Lot",,,,"0559: Castelneau, Département du Lot",,,
0560,"Castelsarrasin, Département du Tarn et Garonne",3028322,44.040,1.107,"0560: Castelsarrasin, Département du Tarn et Garonne",,,
0561,"Castet, Département des Basses-Pyrénées",2974821,43.383,-0.350,"0561: Castet, Département des Basses-Pyrénées",,,
0562,"Casties, Département de la Haute Garonne",3028291,43.329,1.010,"0562: Casties, Département de la Haute Garonne",,,
0563,"Castres, Département du Tarn",3028263,43.606,2.240,"0563: Castres, Département du Tarn",,,
0564,"Cateau, Département du Nord",3004835,50.100,3.550,"0564: Cateau, Département du Nord",,,
0565,"Caudebec, Département de la Seine inférieure",3028214,49.281,1.022,"0565: Caudebec, Département de la Seine inférieure",,,
0566,"Caudebec-lès-Elbeuf, Département de la Seine-Inférieure",3028214,49.281,1.022,"0566: Caudebec-lès-Elbeuf, Département de la Seine-Inférieure",,,
0567,"Caumont, Département du Vaucluse",3028185,43.894,4.947,"0567: Caumont, Département du Vaucluse",,,
0568,Cauzac (Lot-et-Garonne),3028137,44.276,0.848,0568: Cauzac (Lot-et-Garonne),,,
0569,"Cavaillon, Département du Vaucluse",3028134,43.831,5.036,"0569: Cavaillon, Département du Vaucluse",,,
0570,"Cavillargues, Département du Gard",3028104,44.115,4.521,"0570: Cavillargues, Département du Gard",,,
0571,"Caville-Pot-de-Fer, Département de la Seine",,,,"0571: Caville-Pot-de-Fer, Département de la Seine",,,
0572,"Caylus, Département du Tarn et Garonne",3028092,44.236,1.772,"0572: Caylus, Département du Tarn et Garonne",,,
0573,Cazats,3028073,44.483,-0.217,0573: Cazats,,,
0574,"Cazères, Département de la Haute Garonne",3028050,43.207,1.086,"0574: Cazères, Département de la Haute Garonne",,,
0575,"Celles, Département de l'Ariège",3027997,42.917,1.685,"0575: Celles, Département de l'Ariège",,,
0576,"Cenon, Département de la Vienne",3027949,46.774,0.537,"0576: Cenon, Département de la Vienne",,,
0577,Cercle de Médéa,,,,0577: Cercle de Médéa,,,
0578,"Céret, Département des Alpes-de-Haute-provence",,,,"0578: Céret, Département des Alpes-de-Haute-provence",,,
0579,"Cernay, Département du Haut-Rhin",3027857,47.810,7.177,"0579: Cernay, Département du Haut-Rhin",,,
0580,"Cervione, Département de la Corse",3027804,42.328,9.493,"0580: Cervione, Département de la Corse",,,
0581,"Cessieu, Département de l'Isère",2976663,45.541,5.391,"0581: Cessieu, Département de l'Isère",,,
0582,"Cessy-les-Bois, Département de la Nièvre",3027764,47.337,3.208,"0582: Cessy-les-Bois, Département de la Nièvre",,,
0583,"Chabeuil, Département de la Drôme",6694620,44.916,4.969,"0583: Chabeuil, Département de la Drôme",,,
0584,"Chabottes, Département des Hautes-Alpes",3027695,44.655,6.176,"0584: Chabottes, Département des Hautes-Alpes",,,
0585,"Chaffaut, Département des Basses-Alpes",,,,"0585: Chaffaut, Département des Basses-Alpes",,,
0586,Chagny,3027641,49.575,4.703,0586: Chagny,,,
0587,"Chaillevette, Département de la Charente-Inférieure",3027621,45.730,-1.058,"0587: Chaillevette, Département de la Charente-Inférieure",,,
0588,"Chailley, Département de l'Yonne",3027619,48.083,3.702,"0588: Chailley, Département de l'Yonne",,,
0589,"Chainaz-les-Frasses, Département de la Haute-Savoie",3027604,45.773,5.996,"0589: Chainaz-les-Frasses, Département de la Haute-Savoie",,,
0590,"Chaînée-des-Coupis, Département du Jura",3027600,46.929,5.440,"0590: Chaînée-des-Coupis, Département du Jura",,,
0591,"Chalabre, Département de l'Aude",3027582,42.982,2.005,"0591: Chalabre, Département de l'Aude",,,
0592,"Chalandray, Département de la Vienne",3027565,46.661,-0.003,"0592: Chalandray, Département de la Vienne",,,
0593,"Challex, Département de l'Ain",3027505,46.185,5.976,"0593: Challex, Département de l'Ain",,,
0594,Chalon,3027484,46.781,4.854,0594: Chalon,,,
0595,"Châlon, Département de la Mayenne",,,,"0595: Châlon, Département de la Mayenne",,,
0596,"Chalon-sur-Saône, Département de la Saône et Loire",3027484,46.781,4.854,"0596: Chalon-sur-Saône, Département de la Saône et Loire",,,
0597,"Chalonnes-sur-Loire, Département de Maine-et-Loire",3027491,47.352,-0.763,"0597: Chalonnes-sur-Loire, Département de Maine-et-Loire",,,
0598,Chalouf,2472350,36.450,10.717,0598: Chalouf,,,
0599,Chalouf (près de Suez),,,,0599: Chalouf (près de Suez),,,
0600,Châlus,3027470,45.655,0.980,0600: Châlus,,,
0601,"Châlus, Département de la Haute-Vienne",3027470,45.655,0.980,"0601: Châlus, Département de la Haute-Vienne",,,
0602,"Chalusset, Département du Puy-de-Dôme",3027468,45.709,2.735,"0602: Chalusset, Département du Puy-de-Dôme",,,
0603,"Chamant, Département de l'Oise",3027447,49.220,2.612,"0603: Chamant, Département de l'Oise",,,
0604,Chambéry,3027422,45.566,5.921,0604: Chambéry,,,
0605,"Chambéry, Département de la Savoie",3027422,45.566,5.921,"0605: Chambéry, Département de la Savoie",,,
0606,"Chambéry, Département de Savoie",3027422,45.566,5.921,"0606: Chambéry, Département de Savoie",,,
0607,"Chambly, Département de l'Oise",3027397,49.167,2.250,"0607: Chambly, Département de l'Oise",,,
0608,"Chambon, Département de la Creuse",3027371,46.355,1.774,"0608: Chambon, Département de la Creuse",,,
0609,"Chambost, Département du Rhône",3027355,45.773,4.369,"0609: Chambost, Département du Rhône",,,
0610,"Champagneux, Département de la Savoie",3027240,45.626,5.671,"0610: Champagneux, Département de la Savoie",,,
0611,Champagney,3027237,47.705,6.682,0611: Champagney,,,
0612,"Champagney, Département de la Haute-Saône",3027237,47.705,6.682,"0612: Champagney, Département de la Haute-Saône",,,
0613,"Champagnole, Département du Jura",3027235,46.745,5.914,"0613: Champagnole, Département du Jura",,,
0614,"Champanastais, Département des Basses-Alpes",,,,"0614: Champanastais, Département des Basses-Alpes",,,
0615,"Champcella, Département des Hautes-Alpes",3027213,44.723,6.572,"0615: Champcella, Département des Hautes-Alpes",,,
0616,"Champtercier, Département des Alpes-de-Haute-Provence",3027010,44.095,6.161,"0616: Champtercier, Département des Alpes-de-Haute-Provence",,,
0617,Chandernagor (Indes Françaises),,,,0617: Chandernagor (Indes Françaises),,,
0618,"Changé, Département de la Sarthe",3026941,47.985,0.283,"0618: Changé, Département de la Sarthe",,,
0619,"Chantemerle, Département de la Marne",3010527,48.614,3.679,"0619: Chantemerle, Département de la Marne",,,
0620,"Chantenay, Département de la Loire-Inférieure",3026845,47.205,-1.602,"0620: Chantenay, Département de la Loire-Inférieure",,,
0621,"Chantilly, Département de l'Oise",3026827,49.195,2.471,"0621: Chantilly, Département de l'Oise",,,
0622,"Chapdes-Beaufort, Département du Puy-de-Dôme",3026795,45.893,2.864,"0622: Chapdes-Beaufort, Département du Puy-de-Dôme",,,
0623,Chaponnay,3026758,45.628,4.936,0623: Chaponnay,,,
0624,"Chaponnay, Département de l'Isère",,,,"0624: Chaponnay, Département de l'Isère",,,
0625,"Chappes, Département de l'Aube",3026745,48.167,4.248,"0625: Chappes, Département de l'Aube",,,
0626,"Charcier, Département du Jura",3026686,46.627,5.751,"0626: Charcier, Département du Jura",,,
0627,"Charentay, Département du Rhône",3026648,46.089,4.679,"0627: Charentay, Département du Rhône",,,
0628,"Charenton-le-Pont, Département de la Seine",,,,"0628: Charenton-le-Pont, Département de la Seine",,,
0629,"Chariez, Département de la Haute Saône",3026625,47.620,6.086,"0629: Chariez, Département de la Haute Saône",,,
0630,"Charleval, Département de l'Eure",3026615,49.373,1.384,"0630: Charleval, Département de l'Eure",,,
0631,Charleville,3026613,49.769,4.725,0631: Charleville,,,
0632,"Charleville, Département des Ardennes",3026613,49.769,4.725,"0632: Charleville, Département des Ardennes",,,
0633,"Charleville-Mézières, Département des Ardennes",3026613,49.769,4.725,"0633: Charleville-Mézières, Département des Ardennes",,,
0634,"Charlieu, Département de la Loire",3026610,46.162,4.172,"0634: Charlieu, Département de la Loire",,,
0635,Charly,3026603,48.977,3.285,0635: Charly,,,
0636,"Charly, Département de l'Aisne",3026603,48.977,3.285,"0636: Charly, Département de l'Aisne",,,
0637,Charmes,3026588,48.372,6.291,0637: Charmes,,,
0638,"Charmes, Département des Vosges",3026588,48.372,6.291,"0638: Charmes, Département des Vosges",,,
0639,"Charolles, Département de la Saône-et-Loire",3010014,46.290,4.304,"0639: Charolles, Département de la Saône-et-Loire",,,
0640,"Charolles, Département de Saône-et-Loire",3026515,46.435,4.275,"0640: Charolles, Département de Saône-et-Loire",,,
0641,Chartres,3026467,48.447,1.489,0641: Chartres,,,
0642,"Chartres, Département d'Eure-et-Loir",3026467,48.447,1.489,"0642: Chartres, Département d'Eure-et-Loir",,,
0643,"Chasselay, Département de l'Isère",3026401,45.257,5.339,"0643: Chasselay, Département de l'Isère",,,
0644,"Chassey-les- Montbozon, Département de la Haute-Saône",3026380,47.517,6.333,"0644: Chassey-les- Montbozon, Département de la Haute-Saône",,,
0645,"Chassiers, Département de l'Ardèche",3026375,44.551,4.297,"0645: Chassiers, Département de l'Ardèche",,,
0646,"Chastel-Marlhac, Département du Cantal",3026338,45.317,2.533,"0646: Chastel-Marlhac, Département du Cantal",,,
0647,"Château-Chinon, Département de la Nièvre",3026298,47.067,3.933,"0647: Château-Chinon, Département de la Nièvre",,,
0648,"Château de Saint-Pierre, Suisse",,,,"0648: Château de Saint-Pierre, Suisse",,,
0649,"Château-Gontier, Département de la Mayenne",3026273,47.829,-0.703,"0649: Château-Gontier, Département de la Mayenne",,,
0650,"Château-Renault, Département d'Indre et Loire",3026208,47.592,0.911,"0650: Château-Renault, Département d'Indre et Loire",,,
0651,"Château-Renault, Département de l'Indre-et-Loire",,,,"0651: Château-Renault, Département de l'Indre-et-Loire",,,
0652,"Châteaudun, Département de l'Eure-et-Loir",3002801,48.167,1.183,"0652: Châteaudun, Département de l'Eure-et-Loir",,,
0653,"Châteaulin, Département du Finistère",3026262,48.197,-4.090,"0653: Châteaulin, Département du Finistère",,,
0654,Châteauneuf,3026223,46.858,2.317,0654: Châteauneuf,,,
0655,"Châteauneuf, Département de Maine-et-Loire",3026221,47.681,-0.487,"0655: Châteauneuf, Département de Maine-et-Loire",,,
0656,"Châteauneuf, Département des Alpes Maritimes",3026243,43.808,7.297,"0656: Châteauneuf, Département des Alpes Maritimes",,,
0657,Châteauroux,3026204,46.812,1.694,0657: Châteauroux,,,
0658,"Châteauroux, Département de l'Indre",3026204,46.812,1.694,"0658: Châteauroux, Département de l'Indre",,,
0659,"Châteauroux, Département des Hautes-Alpes",3026205,44.615,6.521,"0659: Châteauroux, Département des Hautes-Alpes",,,
0660,"Châteauvieux, Département des Hautes-Alpes",3026188,44.485,6.051,"0660: Châteauvieux, Département des Hautes-Alpes",,,
0661,"Châtel-Saint-Denis, Suisse",2661202,46.527,6.901,"0661: Châtel-Saint-Denis, Suisse",,,
0662,"Châtel-sur-Mosel, Département des Vosges",,,,"0662: Châtel-sur-Mosel, Département des Vosges",,,
0663,"Châtel-sur-Moselle, Département des Vosges",3026130,48.314,6.394,"0663: Châtel-sur-Moselle, Département des Vosges",,,
0664,Châtelblanc,3026158,46.673,6.116,0664: Châtelblanc,,,
0665,"Châtelblanc, Département du Doubs",3026158,46.673,6.116,"0665: Châtelblanc, Département du Doubs",,,
0666,"Châtellerault, Département de la Vienne",3026141,46.817,0.545,"0666: Châtellerault, Département de la Vienne",,,
0667,"Châtillon, Département de la Drôme",3026062,45.087,5.130,"0667: Châtillon, Département de la Drôme",,,
0668,"Châtillon, Département de la Nièvre",3026073,47.055,3.659,"0668: Châtillon, Département de la Nièvre",,,
0669,"Châtillon-en-Michaille, Département de l'Ain",3026074,46.143,5.800,"0669: Châtillon-en-Michaille, Département de l'Ain",,,
0670,"Châtillon-sur-Chalaronne, Département de l'Ain",3026057,46.118,4.957,"0670: Châtillon-sur-Chalaronne, Département de l'Ain",,,
0671,"Chatonay, Département de l'Isère",,,,"0671: Chatonay, Département de l'Isère",,,
0672,"Chatte, Département de l'Isère",3026013,45.142,5.282,"0672: Chatte, Département de l'Isère",,,
0673,"Chaulnes, Département de la Somme",3025942,49.817,2.801,"0673: Chaulnes, Département de la Somme",,,
0674,"Chaumes, Département de Seine et Marne",3025910,48.669,2.840,"0674: Chaumes, Département de Seine et Marne",,,
0675,"Chaumont, Département de la Haute-Marne",3025892,48.111,5.141,"0675: Chaumont, Département de la Haute-Marne",,,
0676,"Chaumont-en-Bassigny, Département de la Haute-Marne",3025892,48.111,5.141,"0676: Chaumont-en-Bassigny, Département de la Haute-Marne",,,
0677,Chauvency,3025821,49.534,5.300,0677: Chauvency,,,
0678,"Chavanges, Département de l'Aube",2988451,48.508,4.499,"0678: Chavanges, Département de l'Aube",,,
0679,"Chavanne, Département de la Haute-Saône",3025753,47.558,6.658,"0679: Chavanne, Département de la Haute-Saône",,,
0680,"Chaveyriat, Département de l'Ain",3025724,46.198,5.061,"0680: Chaveyriat, Département de l'Ain",,,
0681,"Cheltenham, Angleterre",2653261,51.900,-2.080,"0681: Cheltenham, Angleterre",,,
0682,"Chenay, Département des Deux Sèvres",3025574,46.325,-0.034,"0682: Chenay, Département des Deux Sèvres",,,
0683,Cherbourg,3025466,49.640,-1.616,0683: Cherbourg,,,
0684,"Cherbourg, Département de la Manche",3025466,49.640,-1.616,"0684: Cherbourg, Département de la Manche",,,
0685,Chéry (Cher),3025412,47.121,2.046,0685: Chéry (Cher),,,
0686,"Chevagnes, Département de l'Allier",3025382,46.611,3.551,"0686: Chevagnes, Département de l'Allier",,,
0687,"Chichilianne, Département de l'Isère",3025188,44.812,5.574,"0687: Chichilianne, Département de l'Isère",,,
0688,"Chierry, Département de l'Aisne",3025177,49.039,3.430,"0688: Chierry, Département de l'Aisne",,,
0689,"Chieuti, Italie",3178794,41.845,15.167,"0689: Chieuti, Italie",,,
0690,Chimilin,3025141,45.575,5.596,0690: Chimilin,,,
0691,"Chinon, Département d'Indre et Loire",3025132,47.167,0.243,"0691: Chinon, Département d'Indre et Loire",,,
0692,"Chios, Archipel Grec",,,,"0692: Chios, Archipel Grec",,,
0693,"Chissay, Département de Loir-et-Cher",3025094,47.337,1.134,"0693: Chissay, Département de Loir-et-Cher",,,
0694,"Choisy-le-Roi, Département de la Seine-et-Oise",,,,"0694: Choisy-le-Roi, Département de la Seine-et-Oise",,,
0695,"Cholet, Département de Maine et Loire",3025053,47.059,-0.880,"0695: Cholet, Département de Maine et Loire",,,
0696,"Cholon, Cochinchine",,,,"0696: Cholon, Cochinchine",,,
0697,"Chomérac, Département de l'Ardèche",3025045,44.708,4.662,"0697: Chomérac, Département de l'Ardèche",,,
0698,Choubra,6213982,-43.948,170.880,0698: Choubra,,,
0699,Choubrah (Egypte),12088668,30.072,31.245,0699: Choubrah (Egypte),,,
0700,"Chouvigny, Département de l'Allier",3025012,46.126,2.991,"0700: Chouvigny, Département de l'Allier",,,
0701,Chypre,146669,35.000,33.000,0701: Chypre,,,
0702,Ciberbey (Tanta),,,,0702: Ciberbey (Tanta),,,
0703,"Ciboure, Département des Basses Pyrénées",3024979,43.383,-1.676,"0703: Ciboure, Département des Basses Pyrénées",,,
0704,"Ciney, Belgique",2800298,50.294,5.100,"0704: Ciney, Belgique",,,
0705,"Cinq-Mars, Département de l'Indre-et-Loire",,,,"0705: Cinq-Mars, Département de l'Indre-et-Loire",,,
0706,"Cintegabelle, Département de la Haute Garonne",3024932,43.313,1.533,"0706: Cintegabelle, Département de la Haute Garonne",,,
0707,"Ciran, Département d'Indre et Loire",3024916,47.060,0.873,"0707: Ciran, Département d'Indre et Loire",,,
0708,Circassie,,,,0708: Circassie,,,
0709,"Cirey-sur-Vezouze, Département de la Meurthe",,,,"0709: Cirey-sur-Vezouze, Département de la Meurthe",,,
0710,"Clairac, Département de Lot et Garonne",3024816,44.360,0.379,"0710: Clairac, Département de Lot et Garonne",,,
0711,Clairvaux (Aube),3024800,48.147,4.788,0711: Clairvaux (Aube),,,
0712,Clairvaux-d'Aveyron,3024797,44.427,2.411,0712: Clairvaux-d'Aveyron,,,
0713,"Clairvaux-d'Aveyron, Département de l'Aveyron",3024797,44.427,2.411,"0713: Clairvaux-d'Aveyron, Département de l'Aveyron",,,
0714,"Claix, Département de l'Isère",3002585,45.123,5.698,"0714: Claix, Département de l'Isère",,,
0715,"Claix, Département de la Charente",3024787,45.555,0.043,"0715: Claix, Département de la Charente",,,
0716,"Clamart, Département de la Seine",3024783,48.803,2.267,"0716: Clamart, Département de la Seine",,,
0717,"Clamecy, Département de Nièvre",3024782,47.460,3.519,"0717: Clamecy, Département de Nièvre",,,
0718,"Clarensac, Département du Gard",3024746,43.825,4.220,"0718: Clarensac, Département du Gard",,,
0719,Clary,3024740,50.078,3.399,0719: Clary,,,
0720,"Clary, Département du Nord",3024740,50.078,3.399,"0720: Clary, Département du Nord",,,
0721,"Cléden, Département du Finistère",3024692,48.236,-3.669,"0721: Cléden, Département du Finistère",,,
0722,"Cléder, Département du Finistère",3024691,48.663,-4.102,"0722: Cléder, Département du Finistère",,,
0723,"Clelles, Département de l'Isère",2978402,44.846,5.622,"0723: Clelles, Département de l'Isère",,,
0724,"Clérieux, Département de la Drôme",3024651,45.076,4.960,"0724: Clérieux, Département de la Drôme",,,
0725,"Clermont, Département de l'hérault",3024631,43.629,3.433,"0725: Clermont, Département de l'hérault",,,
0726,"Clermont, Département de l'Oise",3024643,49.379,2.413,"0726: Clermont, Département de l'Oise",,,
0727,"Clermont, Département du Puy de Dôme",3024635,45.780,3.087,"0727: Clermont, Département du Puy de Dôme",,,
0728,"Clermont, Département duPuy de Dôme",,,,"0728: Clermont, Département duPuy de Dôme",,,
0729,Clermont-Ferrand,3024635,45.780,3.087,0729: Clermont-Ferrand,,,
0730,"Clermont Ferrand, Département du Puy de Dôme",3024635,45.780,3.087,"0730: Clermont Ferrand, Département du Puy de Dôme",,,
0731,"Clermont-l'Hérault, Département de l'Hérault",3024631,43.629,3.433,"0731: Clermont-l'Hérault, Département de l'Hérault",,,
0732,"Clichy-la-Garenne, Département de la Seine",3024597,48.900,2.310,"0732: Clichy-la-Garenne, Département de la Seine",,,
0733,Cluny,3024534,46.433,4.658,0733: Cluny,,,
0734,"Cluny, Département de Saône et Loire",3024534,46.433,4.658,"0734: Cluny, Département de Saône et Loire",,,
0735,"Cluses, Département de la Haute-Savoie",3024532,46.063,6.575,"0735: Cluses, Département de la Haute-Savoie",,,
0736,Cochinchine,1573261,11.000,107.000,0736: Cochinchine,,,
0737,Cognac,3024440,45.696,-0.329,0737: Cognac,,,
0738,"Cognac, Département de la Charente",3024440,45.696,-0.329,"0738: Cognac, Département de la Charente",,,
0739,"Cognano, Département de la Corse",,,,"0739: Cognano, Département de la Corse",,,
0740,"Cogolin, Département du Var",3024421,43.253,6.530,"0740: Cogolin, Département du Var",,,
0741,"Collioure, Département des Pyrénées-Orientales",3024314,42.525,3.082,"0741: Collioure, Département des Pyrénées-Orientales",,,
0742,"Collonges, Département de l'Ain",3024306,46.138,5.905,"0742: Collonges, Département de l'Ain",,,
0743,"Colmar, Département du Haut-Rhin",3024297,48.081,7.356,"0743: Colmar, Département du Haut-Rhin",,,
0744,"Colmars, Département des Basses-Alpes",,,,"0744: Colmars, Département des Basses-Alpes",,,
0745,Colméry,3024288,47.347,3.250,0745: Colméry,,,
0746,Colombe,2980676,44.178,0.516,0746: Colombe,,,
0747,"Colombe, Département de l'Isère",3024273,45.400,5.454,"0747: Colombe, Département de l'Isère",,,
0748,"Colombier, Canton de Neuchâtel (Suisse)",2661143,46.966,6.865,"0748: Colombier, Canton de Neuchâtel (Suisse)",,,
0749,"Colombier, Suisse",2661144,46.557,6.473,"0749: Colombier, Suisse",,,
0750,"Colombier, Suisse (Canton de Vaud)",2661144,46.557,6.473,"0750: Colombier, Suisse (Canton de Vaud)",,,
0751,"Colombiers, Département de l'Hérault",3024239,43.314,3.139,"0751: Colombiers, Département de l'Hérault",,,
0752,Colroy-la-Roche,3024207,48.390,7.179,0752: Colroy-la-Roche,,,
0753,"Colroy-la-Roche, Département des Vosges",,,,"0753: Colroy-la-Roche, Département des Vosges",,,
0754,"Combeaufontaine, Département de la Haute-Saône",3024189,47.710,5.891,"0754: Combeaufontaine, Département de la Haute-Saône",,,
0755,"Combronde, Département du Puy de Dôme",3024111,45.981,3.088,"0755: Combronde, Département du Puy de Dôme",,,
0756,"Commercy, Département de la Meuse",3024086,48.761,5.591,"0756: Commercy, Département de la Meuse",,,
0757,"Comps, Département du Gard",3024057,43.853,4.606,"0757: Comps, Département du Gard",,,
0758,"Comté de Suffolk, Angleterre",,,,"0758: Comté de Suffolk, Angleterre",,,
0759,"Concarneau, Département du Finistère",3024035,47.875,-3.922,"0759: Concarneau, Département du Finistère",,,
0760,"Concoret, Département du Morbihan",3024011,48.064,-2.204,"0760: Concoret, Département du Morbihan",,,
0761,Condé-sur-Marne,3023954,49.044,4.180,0761: Condé-sur-Marne,,,
0762,"Condeissiat, Département de l'Ain",3023968,46.157,5.079,"0762: Condeissiat, Département de l'Ain",,,
0763,"Condom, Département du Gers",3018323,43.848,0.663,"0763: Condom, Département du Gers",,,
0764,"Conegliano, Italie",3178197,45.888,12.302,"0764: Conegliano, Italie",,,
0765,"Confolens, Département de la Charente",2979839,46.054,0.684,"0765: Confolens, Département de la Charente",,,
0766,"Coni, Italie",6299587,44.547,7.623,"0766: Coni, Italie",,,
0767,"Conques, Département de l'Aveyron",3023872,44.600,2.399,"0767: Conques, Département de l'Aveyron",,,
0768,Constantine,2501152,36.365,6.615,0768: Constantine,,,
0769,Constantine (Algérie),2501152,36.365,6.615,0769: Constantine (Algérie),,,
0770,Constantinople,745044,41.014,28.950,0770: Constantinople,,,
0771,"Constantinople, Italie",,,,"0771: Constantinople, Italie",,,
0772,"Constantinople, Turquie",745044,41.014,28.950,"0772: Constantinople, Turquie",,,
0773,"Constantinople, Turquie d'Europe",,,,"0773: Constantinople, Turquie d'Europe",,,
0774,"Contrexéville, Département des Vosges",3023808,48.184,5.896,"0774: Contrexéville, Département des Vosges",,,
0775,"Coray, Département du Finistère",3023777,48.059,-3.831,"0775: Coray, Département du Finistère",,,
0776,"Corbeil, Département de Seine-et-Marne",,,,"0776: Corbeil, Département de Seine-et-Marne",,,
0777,"Corbeil, Département de Seine-et-Oise",,,,"0777: Corbeil, Département de Seine-et-Oise",,,
0778,"Corbeille, Département de Seine et Oise",,,,"0778: Corbeille, Département de Seine et Oise",,,
0779,Corbonod,3023728,45.968,5.822,0779: Corbonod,,,
0780,"Corbonod, Département de l'Ain",3023728,45.968,5.822,"0780: Corbonod, Département de l'Ain",,,
0781,"Corbora, Département de la Haute-Corse",,,,"0781: Corbora, Département de la Haute-Corse",,,
0782,"Corfou, Grèce",6299495,39.602,19.912,"0782: Corfou, Grèce",,,
0783,"Cormatin, Département de Saône-et-Loire",3023653,46.546,4.686,"0783: Cormatin, Département de Saône-et-Loire",,,
0784,Cornillé,3023582,48.081,-1.308,0784: Cornillé,,,
0785,"Cornillé, Département de Maine-et-Loire",3023581,47.500,-0.302,"0785: Cornillé, Département de Maine-et-Loire",,,
0786,"Corps, Département de l'Isère",3023547,44.817,5.948,"0786: Corps, Département de l'Isère",,,
0787,"Correns, Département du Var",3023536,43.488,6.080,"0787: Correns, Département du Var",,,
0788,Corse,3023517,41.989,8.998,0788: Corse,,,
0789,Corte,3117735,40.417,-3.703,0789: Corte,,,
0790,"Corte, Département de la Corse",3023506,42.310,9.149,"0790: Corte, Département de la Corse",,,
0791,"Corte, Département de la Haute-Corse",8378560,42.102,9.510,"0791: Corte, Département de la Haute-Corse",,,
0792,"Cosne-Cours-sur-Loire, Département de la Nièvre",3023476,47.411,2.925,"0792: Cosne-Cours-sur-Loire, Département de la Nièvre",,,
0793,"Cosne, Département de la Nièvre",3023476,47.411,2.925,"0793: Cosne, Département de la Nièvre",,,
0794,"Cosqueville, Département de la Manche",3023473,49.694,-1.409,"0794: Cosqueville, Département de la Manche",,,
0795,"Cotignac, Département du Var",3023410,43.529,6.150,"0795: Cotignac, Département du Var",,,
0796,"Coubisou, Département de l'Aveyron",3023387,44.553,2.729,"0796: Coubisou, Département de l'Aveyron",,,
0797,"Couches, Département de Saône-et-Loire",3023371,46.867,4.567,"0797: Couches, Département de Saône-et-Loire",,,
0798,"Coucy le Château, Département de l'Aisne",3023363,49.521,3.324,"0798: Coucy le Château, Département de l'Aisne",,,
0799,"Couleuvre, Département de l'Allier",3023271,46.672,2.908,"0799: Couleuvre, Département de l'Allier",,,
0800,"Coulommes-et-Marqueny, Département des Ardennes",3023244,49.435,4.580,"0800: Coulommes-et-Marqueny, Département des Ardennes",,,
0801,"Courbevoie, Département de la Seine",10173619,48.898,2.263,"0801: Courbevoie, Département de la Seine",,,
0802,"Courmerie, Département de la Meuse",,,,"0802: Courmerie, Département de la Meuse",,,
0803,"Cournon, Département du Morbihan",3022989,47.746,-2.107,"0803: Cournon, Département du Morbihan",,,
0804,"Courpière, Département du Puy-de-Dôme",3022977,45.757,3.542,"0804: Courpière, Département du Puy-de-Dôme",,,
0805,"Courthézon, Département du Vaucluse",3022897,44.088,4.884,"0805: Courthézon, Département du Vaucluse",,,
0806,Courthézon (Vaucluse),3022897,44.088,4.884,0806: Courthézon (Vaucluse),,,
0807,"Courville, Département de l'Eure-et-Loir",,,,"0807: Courville, Département de l'Eure-et-Loir",,,
0808,"Cousance, Département du Jura",3022856,46.533,5.392,"0808: Cousance, Département du Jura",,,
0809,"Coussey, Département des Vosges",3022837,48.407,5.684,"0809: Coussey, Département des Vosges",,,
0810,"Coutouvre, Département de la Loire",3022800,46.073,4.205,"0810: Coutouvre, Département de la Loire",,,
0811,"Couzou, Département du Lot",3022743,44.767,1.617,"0811: Couzou, Département du Lot",,,
0812,"Craon, Département de la Mayenne",3022690,47.847,-0.949,"0812: Craon, Département de la Mayenne",,,
0813,"Craponne, Département de la Haute-Loire",3022679,45.331,3.848,"0813: Craponne, Département de la Haute-Loire",,,
0814,"Crécy, Département de Seine-et-Marne",3022623,48.859,2.907,"0814: Crécy, Département de Seine-et-Marne",,,
0815,"Créhen, Département des Côtes-du-Nord",3022611,48.545,-2.213,"0815: Créhen, Département des Côtes-du-Nord",,,
0816,"Crémieu, Département de l'Isère",3022600,45.726,5.249,"0816: Crémieu, Département de l'Isère",,,
0817,"Cressier, Suisse",2661077,46.898,7.141,"0817: Cressier, Suisse",,,
0818,"Crest, Département de la Drôme",3022540,44.726,5.015,"0818: Crest, Département de la Drôme",,,
0819,"Créteil, Département de la Seine",,,,"0819: Créteil, Département de la Seine",,,
0820,"Creully, Département du Calvados",3022523,49.285,-0.540,"0820: Creully, Département du Calvados",,,
0821,"Criel, Département de la Seine inférieure",3022461,50.015,1.315,"0821: Criel, Département de la Seine inférieure",,,
0822,"Croix-de-Vie, Département de la Vendée",2979662,46.698,-1.946,"0822: Croix-de-Vie, Département de la Vendée",,,
0823,Crozon,3022242,48.246,-4.490,0823: Crozon,,,
0824,"Crozon, Département du Finistère",3022242,48.246,-4.490,"0824: Crozon, Département du Finistère",,,
0825,"Crusnes, Département de la Moselle",3022214,49.448,5.599,"0825: Crusnes, Département de la Moselle",,,
0826,"Cublize, Département du Rhône",3022187,46.018,4.377,"0826: Cublize, Département du Rhône",,,
0827,Cuers,6006078,47.063,-76.900,0827: Cuers,,,
0828,"Cuers, Département du Var",3022158,43.238,6.072,"0828: Cuers, Département du Var",,,
0829,"Cuges, Département des Bouches du Rhône",3022152,43.276,5.700,"0829: Cuges, Département des Bouches du Rhône",,,
0830,"Cuing, Département de Haute-Garonne",3004378,43.145,0.613,"0830: Cuing, Département de Haute-Garonne",,,
0831,Cuiseaux,3022124,46.495,5.389,0831: Cuiseaux,,,
0832,"Cunel, Département de la Meuse",3022076,49.336,5.115,"0832: Cunel, Département de la Meuse",,,
0833,"Cuneo, Italie",6299587,44.547,7.623,"0833: Cuneo, Italie",,,
0834,"Cusset, Département de l'Allier",3021993,46.135,3.456,"0834: Cusset, Département de l'Allier",,,
0835,Custines,3021980,48.791,6.145,0835: Custines,,,
0836,"Custines, Département de la Meurthe",,,,"0836: Custines, Département de la Meurthe",,,
0837,Damanhur,358448,31.034,30.468,0837: Damanhur,,,
0838,"Damas, Syrie",170654,33.510,36.291,"0838: Damas, Syrie",,,
0839,"Dambach, Département du Bas Rhin",3021889,49.005,7.629,"0839: Dambach, Département du Bas Rhin",,,
0840,Damiette,358048,31.416,31.813,0840: Damiette,,,
0841,"Damiette, Egypte",358048,31.416,31.813,"0841: Damiette, Egypte",,,
0842,"Dammarie-en-Puisaye, Département du Loiret",3021853,47.626,2.872,"0842: Dammarie-en-Puisaye, Département du Loiret",,,
0843,"Dammartin, Département de la Seine-et-Marne",3021848,49.054,2.678,"0843: Dammartin, Département de la Seine-et-Marne",,,
0844,"Danjoutin, Département du Haut-Rhin",,,,"0844: Danjoutin, Département du Haut-Rhin",,,
0845,"Dannemarie, Département du Haut-Rhin",3021762,47.630,7.119,"0845: Dannemarie, Département du Haut-Rhin",,,
0846,Daoulas,3021747,48.361,-4.260,0846: Daoulas,,,
0847,"Daoulas, Département du Finistère",3021747,48.361,-4.260,"0847: Daoulas, Département du Finistère",,,
0848,"Daumazan, Département de l'Ariège",3021689,43.143,1.307,"0848: Daumazan, Département de l'Ariège",,,
0849,Dax,3021670,43.710,-1.054,0849: Dax,,,
0850,"Dax, Département des Landes",3021670,43.710,-1.054,"0850: Dax, Département des Landes",,,
0851,(de nation française),,,,0851: (de nation française),,,
0852,"Decazeville, Département de l'Aveyron",3021664,44.560,2.251,"0852: Decazeville, Département de l'Aveyron",,,
0853,Dégagnac,3021646,44.665,1.315,0853: Dégagnac,,,
0854,"Dégagnac, Département du Lot",3021646,44.665,1.315,"0854: Dégagnac, Département du Lot",,,
0855,Deïrout,358269,27.556,30.808,0855: Deïrout,,,
0856,"Dellys, Algérie",2500583,36.917,3.913,"0856: Dellys, Algérie",,,
0857,"Delme, Département de la Meurthe",,,,"0857: Delme, Département de la Meurthe",,,
0858,Deneuille,3021598,46.379,2.782,0858: Deneuille,,,
0859,"Deneuille, Departement de l'Allier",3021598,46.379,2.782,"0859: Deneuille, Departement de l'Allier",,,
0860,Deniani,,,,0860: Deniani,,,
0861,Département d'Alger,2507480,36.732,3.087,0861: Département d'Alger,,,
0862,Département d'algérie,2507480,36.732,3.087,0862: Département d'algérie,,,
0863,Département d'Egypte,2993693,47.308,4.372,0863: Département d'Egypte,,,
0864,Département d'Ille et Vilaine,2989914,48.112,-1.523,0864: Département d'Ille et Vilaine,,,
0865,Département d'Oran (Algérie),2485926,35.699,-0.636,0865: Département d'Oran (Algérie),,,
0866,Département de Cosntantine,,,,0866: Département de Cosntantine,,,
0867,Département de l'Aisne,3038375,49.500,3.500,0867: Département de l'Aisne,,,
0868,Département de l'Ardèche,3036418,44.620,4.390,0868: Département de l'Ardèche,,,
0869,Département de l'Ariège,3018174,42.960,1.608,0869: Département de l'Ariège,,,
0870,Département de l'Aude,3036264,43.083,2.500,0870: Département de l'Aude,,,
0871,Département de l'Eure-et-Loir,2974197,48.834,1.367,0871: Département de l'Eure-et-Loir,,,
0872,Département de l'Eure et Loire,2974197,48.834,1.367,0872: Département de l'Eure et Loire,,,
0873,Département de l'Hérault,3013500,43.667,3.500,0873: Département de l'Hérault,,,
0874,Département de l'Ille-et-Vilaine,2998441,47.852,-1.943,0874: Département de l'Ille-et-Vilaine,,,
0875,Département de l'Isère,3012715,45.167,5.833,0875: Département de l'Isère,,,
0876,Département de l'Oise,2990264,49.272,2.471,0876: Département de l'Oise,,,
0877,Département de l'Orne,2989247,48.667,0.083,0877: Département de l'Orne,,,
0878,Département de la Charente,3006787,46.167,-1.150,0878: Département de la Charente,,,
0879,Département de la Charente-Inférieure,3035560,46.136,-1.115,0879: Département de la Charente-Inférieure,,,
0880,Département de la Corse,3013793,42.417,9.167,0880: Département de la Corse,,,
0881,Département de la Côte-d'Or,3023424,47.167,4.833,0881: Département de la Côte-d'Or,,,
0882,Département de la Dordogne,3021042,45.127,0.735,0882: Département de la Dordogne,,,
0883,Département de la Drôme,3020781,44.700,5.165,0883: Département de la Drôme,,,
0884,Département de la Garonne,2985982,43.523,1.407,0884: Département de la Garonne,,,
0885,Département de la Gironde,3015948,44.693,-0.414,0885: Département de la Gironde,,,
0886,Département de la Haute-Corse,3013793,42.417,9.167,0886: Département de la Haute-Corse,,,
0887,Département de la Haute-Marne,3013757,48.120,5.240,0887: Département de la Haute-Marne,,,
0888,Département de la Haute-Savoie,3006770,46.071,6.305,0888: Département de la Haute-Savoie,,,
0889,Département de la Loire,2990969,47.217,-1.553,0889: Département de la Loire,,,
0890,Département de la Loire inférieure,2990969,47.217,-1.553,0890: Département de la Loire inférieure,,,
0891,Département de la Manche,2996268,49.038,-1.319,0891: Département de la Manche,,,
0892,Département de la Marne,2990612,48.854,2.549,0892: Département de la Marne,,,
0893,Département de la Martinique,3570675,14.604,-61.074,0893: Département de la Martinique,,,
0894,Département de la Mayenne,2994935,48.303,-0.614,0894: Département de la Mayenne,,,
0895,Département de la Meurthe,2972350,48.681,5.891,0895: Département de la Meurthe,,,
0896,Département de la Meurthe-et-Moselle,2972350,48.681,5.891,0896: Département de la Meurthe-et-Moselle,,,
0897,Département de la Meuse,2994106,48.972,5.364,0897: Département de la Meuse,,,
0898,Département de la Moselle,2981492,49.105,6.704,0898: Département de la Moselle,,,
0899,Département de la Sarthe,2982076,47.838,-0.333,0899: Département de la Sarthe,,,
0900,Département de la Savoie,3006770,46.071,6.305,0900: Département de la Savoie,,,
0901,Département de la Seine,3020020,48.954,2.315,0901: Département de la Seine,,,
0902,Département de la Seine-et-Marne,3024701,48.945,2.686,0902: Département de la Seine-et-Marne,,,
0903,Département de la Seine-Inférieure,2967189,49.617,0.758,0903: Département de la Seine-Inférieure,,,
0904,Département de la Somme,2974304,49.931,2.276,0904: Département de la Somme,,,
0905,Département de la Vienne,2969284,45.526,4.875,0905: Département de la Vienne,,,
0906,Département de Loire-Atlantique,2990969,47.217,-1.553,0906: Département de Loire-Atlantique,,,
0907,Département de Maine-et-Loire,3025053,47.059,-0.880,0907: Département de Maine-et-Loire,,,
0908,Département de Saône-et-Loire,3027484,46.781,4.854,0908: Département de Saône-et-Loire,,,
0909,Département de Seine-et-Oise,3023924,49.002,2.097,0909: Département de Seine-et-Oise,,,
0910,Département des Alpes-de-Haute-Provence,2996180,43.829,5.787,0910: Département des Alpes-de-Haute-Provence,,,
0911,Département des Ardennes,3037136,49.632,4.654,0911: Département des Ardennes,,,
0912,Département des Basses Alpes,3038050,44.098,6.265,0912: Département des Basses Alpes,,,
0913,Département des Basses-Pyrénées,3001617,43.333,-0.417,0913: Département des Basses-Pyrénées,,,
0914,Département des Bouches-du-Rhône,2995469,43.297,5.381,0914: Département des Bouches-du-Rhône,,,
0915,Département des Côtes-du-Nord,3023414,48.343,-2.782,0915: Département des Côtes-du-Nord,,,
0916,Département des Hautes Alpes,3016702,44.559,6.079,0916: Département des Hautes Alpes,,,
0917,Département des Vosges,3016274,48.073,6.878,0917: Département des Vosges,,,
0918,Département du Bas Rhin,2975446,48.607,7.749,0918: Département du Bas Rhin,,,
0919,Département du Calvados,3029094,49.090,-0.306,0919: Département du Calvados,,,
0920,Département du Cantal,3028791,45.140,2.649,0920: Département du Cantal,,,
0921,Département du Cher,3025480,47.113,2.510,0921: Département du Cher,,,
0922,Département du Doubs,3020989,47.200,6.435,0922: Département du Doubs,,,
0923,Département du Finistère,3020996,48.095,-4.329,0923: Département du Finistère,,,
0924,Département du Gard,3016670,44.018,4.288,0924: Département du Gard,,,
0925,Département du Gers,3016194,43.717,0.454,0925: Département du Gers,,,
0926,Département du Haut-Rhin,3013663,47.876,7.272,0926: Département du Haut-Rhin,,,
0927,Département du Jura,3037287,46.903,5.775,0927: Département du Jura,,,
0928,Département du Maine-et-loire,2978985,47.303,-0.633,0928: Département du Maine-et-loire,,,
0929,Département du Morbihan,2991879,47.848,-2.778,0929: Département du Morbihan,,,
0930,Département du Nord,2392204,9.337,2.630,0930: Département du Nord,,,
0931,Département du Pas-de-Calais,3029162,50.952,1.856,0931: Département du Pas-de-Calais,,,
0932,Département du Rhône,2968254,45.766,4.880,0932: Département du Rhône,,,
0933,Département du Tarn,2973362,43.782,2.163,0933: Département du Tarn,,,
0934,Département du Var,3005825,43.138,5.983,0934: Département du Var,,,
0935,Département du Vaucluse,3028134,43.831,5.036,0935: Département du Vaucluse,,,
0936,"Derval, Département de la Loire-Inférieure",3021552,47.667,-1.670,"0936: Derval, Département de la Loire-Inférieure",,,
0937,"Désert de Suez, Egypte",,,,"0937: Désert de Suez, Egypte",,,
0938,Déversoir,2140433,-22.283,166.883,0938: Déversoir,,,
0939,"Die, Département de la Drôme",3021435,44.754,5.370,"0939: Die, Département de la Drôme",,,
0940,"Die, Départementde la Drôme",,,,"0940: Die, Départementde la Drôme",,,
0941,"Dième, Département du Rhône",3021421,45.962,4.466,"0941: Dième, Département du Rhône",,,
0942,Dieppe,3021411,49.922,1.078,0942: Dieppe,,,
0943,"Dieppe, Département de la Seine inférieure",3021411,49.922,1.078,"0943: Dieppe, Département de la Seine inférieure",,,
0944,"Dieulefit, Département de la Drôme",3021397,44.526,5.062,"0944: Dieulefit, Département de la Drôme",,,
0945,"Digne, Département des Basses-Alpes",3034680,44.084,6.204,"0945: Digne, Département des Basses-Alpes",,,
0946,"Digne-les-bains, Département des Alpes-de-Haute-Provence",3021382,44.093,6.232,"0946: Digne-les-bains, Département des Alpes-de-Haute-Provence",,,
0947,"Digoin, Département de la Saône-et-Loire",2983359,46.213,4.035,"0947: Digoin, Département de la Saône-et-Loire",,,
0948,"Dijon, Département de la Côte d'Or",3021372,47.317,5.017,"0948: Dijon, Département de la Côte d'Or",,,
0949,"Dinan, Département des Côtes-du-Nord",3021356,48.456,-2.050,"0949: Dinan, Département des Côtes-du-Nord",,,
0950,Diocèse de Pamiers,,,,0950: Diocèse de Pamiers,,,
0951,Diocèse de Strasbourg,,,,0951: Diocèse de Strasbourg,,,
0952,Diocèse de Valence,12088643,44.932,4.890,0952: Diocèse de Valence,,,
0953,"Dissay-sous-Courcillon, Département de la Sarthe",3021318,47.665,0.473,"0953: Dissay-sous-Courcillon, Département de la Sarthe",,,
0954,"Djeddah, Arabie",,,,"0954: Djeddah, Arabie",,,
0955,Djelfa,2500017,34.673,3.263,0955: Djelfa,,,
0956,"Djelfa, Algérie",2500017,34.673,3.263,"0956: Djelfa, Algérie",,,
0957,"Djigelly, Département d'Algérie",,,,"0957: Djigelly, Département d'Algérie",,,
0958,"Dôle, Département du Jura",3021263,47.092,5.490,"0958: Dôle, Département du Jura",,,
0959,"Dollot, Département de l'Yonne",3021252,48.210,3.069,"0959: Dollot, Département de l'Yonne",,,
0960,"Domancy, Département de la Haute-Savoie",3021233,45.912,6.653,"0960: Domancy, Département de la Haute-Savoie",,,
0961,Dombasle,3021221,48.619,6.355,0961: Dombasle,,,
0962,"Dombasle, Département de la Meurthe",,,,"0962: Dombasle, Département de la Meurthe",,,
0963,"Domène, Département de l'Isère",3021210,45.203,5.833,"0963: Domène, Département de l'Isère",,,
0964,"Domèvre, Département de la Meurthe",,,,"0964: Domèvre, Département de la Meurthe",,,
0965,"Dompierre, Département du Jura",3021127,46.559,5.609,"0965: Dompierre, Département du Jura",,,
0966,"Dompierre-sur-Héry, Département de la Nièvre",3021129,47.264,3.566,"0966: Dompierre-sur-Héry, Département de la Nièvre",,,
0967,"Domsure, Département de l'Ain",3021108,46.417,5.295,"0967: Domsure, Département de l'Ain",,,
0968,"Donzère, Département de la Drôme",3021061,44.442,4.711,"0968: Donzère, Département de la Drôme",,,
0969,"Dorceau, Département de l'Orne",3021048,48.424,0.802,"0969: Dorceau, Département de l'Orne",,,
0970,Douai,3021000,50.371,3.079,0970: Douai,,,
0971,"Douai, Département du Nord",3021000,50.371,3.079,"0971: Douai, Département du Nord",,,
0972,Douarnenez,3020996,48.095,-4.329,0972: Douarnenez,,,
0973,"Douarnenez, Département du Finistère",3020996,48.095,-4.329,"0973: Douarnenez, Département du Finistère",,,
0974,"Douera, Algérie",2499193,36.670,2.944,"0974: Douera, Algérie",,,
0975,"Doumely-Bégny, Département des Ardennes",3020940,49.629,4.301,"0975: Doumely-Bégny, Département des Ardennes",,,
0976,"Dourgnes, Département du Tarn",,,,"0976: Dourgnes, Département du Tarn",,,
0977,Doussard,3020900,45.775,6.226,0977: Doussard,,,
0978,"Doussard, Département de la Haute-Savoie",3020900,45.775,6.226,"0978: Doussard, Département de la Haute-Savoie",,,
0979,"Douvaine, Département de la Haute-Savoie",3020894,46.305,6.304,"0979: Douvaine, Département de la Haute-Savoie",,,
0980,"Douvres, Département du Calvados",3020887,49.295,-0.380,"0980: Douvres, Département du Calvados",,,
0981,"Drachenbronn-Birlenbach, Département du Bas-Rhin",3020860,48.983,7.867,"0981: Drachenbronn-Birlenbach, Département du Bas-Rhin",,,
0982,"Dracy, Département de l'Yonne",3020852,47.750,3.250,"0982: Dracy, Département de l'Yonne",,,
0983,Draguignan,3020850,43.537,6.465,0983: Draguignan,,,
0984,"Draguignan, Département du Var",3020850,43.537,6.465,"0984: Draguignan, Département du Var",,,
0985,"Dreux, Département d'Eure-et-Loir",3020810,48.736,1.366,"0985: Dreux, Département d'Eure-et-Loir",,,
0986,"Dreux, Département de l'Eure-et-Loir",2974197,48.834,1.367,"0986: Dreux, Département de l'Eure-et-Loir",,,
0987,"Droupt-Sainte-Marie, Département de l'Aube",3020761,48.494,3.923,"0987: Droupt-Sainte-Marie, Département de l'Aube",,,
0988,Druyes,3020732,47.549,3.422,0988: Druyes,,,
0989,"Druyes, Département de l'Yonne",3020732,47.549,3.422,"0989: Druyes, Département de l'Yonne",,,
0990,"Duclair, Département de la Seine-Inférieure",3020720,49.484,0.876,"0990: Duclair, Département de la Seine-Inférieure",,,
0991,Dunkerque,3020686,51.033,2.377,0991: Dunkerque,,,
0992,"Dunkerque, Département du Nord",3020686,51.033,2.377,"0992: Dunkerque, Département du Nord",,,
0993,"Durban, Département de l'Ariège",3028338,43.001,1.342,"0993: Durban, Département de l'Ariège",,,
0994,"Durfort-et-Saint-Martin-de-Sossenac, Département du Gard",3020635,43.990,3.955,"0994: Durfort-et-Saint-Martin-de-Sossenac, Département du Gard",,,
0995,Echelle neuve (près de Smyrne),,,,0995: Echelle neuve (près de Smyrne),,,
0996,"Échillais, Département de la Charente-Inférieure",3020500,45.901,-0.952,"0996: Échillais, Département de la Charente-Inférieure",,,
0997,"Ecoivres, Département du Pas-de-Calais",3020471,50.323,2.290,"0997: Ecoivres, Département du Pas-de-Calais",,,
0998,"Éguilles, Département des Bouches-du-Rhône",3020330,43.569,5.356,"0998: Éguilles, Département des Bouches-du-Rhône",,,
0999,"Éguzon-Chantôme, Département de l'Indre",3020323,46.450,1.583,"0999: Éguzon-Chantôme, Département de l'Indre",,,
1000,Egypte,357994,27.000,30.000,1000: Egypte,,,
1001,El guisr,,,,1001: El guisr,,,
1002,El-Guisr (Egypte),,,,1002: El-Guisr (Egypte),,,
1003,"El-Guisr, Isthme de Suez",,,,"1003: El-Guisr, Isthme de Suez",,,
1004,"El Kantour, Algérie",2492747,36.567,6.730,"1004: El Kantour, Algérie",,,
1005,"Elbeuf, Département de la Seine inférieure",3020307,49.287,1.003,"1005: Elbeuf, Département de la Seine inférieure",,,
1006,Elliant,3020283,47.994,-3.890,1006: Elliant,,,
1007,"Elliant, Département du Finistère",3020283,47.994,-3.890,"1007: Elliant, Département du Finistère",,,
1008,"Embrun, Département de Hautes-Alpes",3020251,44.564,6.495,"1008: Embrun, Département de Hautes-Alpes",,,
1009,"Embrun, Département des Hautes-Alpes",3020251,44.564,6.495,"1009: Embrun, Département des Hautes-Alpes",,,
1010,En mer,3031133,50.726,1.614,1010: En mer,,,
1011,"en mer, entre Marseille et Alexandrie",,,,"1011: en mer, entre Marseille et Alexandrie",,,
1012,"Encausse, Département de la Haute Garonne",3020225,43.050,0.741,"1012: Encausse, Département de la Haute Garonne",,,
1013,"Ens, Département des Hautes-Pyrénées",6440705,42.807,0.341,"1013: Ens, Département des Hautes-Pyrénées",,,
1014,"Ensisheim, Département du Haut-Rhin",3020152,47.866,7.351,"1014: Ensisheim, Département du Haut-Rhin",,,
1015,"Entre-deux-Guiers, Département de l'Isère",3020131,45.431,5.752,"1015: Entre-deux-Guiers, Département de l'Isère",,,
1016,"Entrevaux, Département des Alpes-de-Haute-Provence",3020119,43.950,6.810,"1016: Entrevaux, Département des Alpes-de-Haute-Provence",,,
1017,"Entrevaux, Département des Basses-Alpes",,,,"1017: Entrevaux, Département des Basses-Alpes",,,
1018,Épagne,3020098,50.072,1.873,1018: Épagne,,,
1019,"Épagne, Département de l'Aube",6426393,48.394,4.465,"1019: Épagne, Département de l'Aube",,,
1020,"Epernon, Département d'Eure et Loir",3020057,48.610,1.672,"1020: Epernon, Département d'Eure et Loir",,,
1021,"Epinal, Département des Vosges",3020035,48.183,6.453,"1021: Epinal, Département des Vosges",,,
1022,"Eppe-Sauvage, Département du Nord",3019978,50.119,4.178,"1022: Eppe-Sauvage, Département du Nord",,,
1023,"Équeurdreville, Département de la Manche",3019960,49.649,-1.653,"1023: Équeurdreville, Département de la Manche",,,
1024,"Erbray, Département de la Loire",3019944,47.655,-1.318,"1024: Erbray, Département de la Loire",,,
1025,Ercé (Ariège),3019942,42.847,1.289,1025: Ercé (Ariège),,,
1026,"Ercé, Département de l'Ariège",3019942,42.847,1.289,"1026: Ercé, Département de l'Ariège",,,
1027,"Ergnies, Département de la Somme",3019923,50.085,2.037,"1027: Ergnies, Département de la Somme",,,
1028,Ermanthe (Haute-Egypte),,,,1028: Ermanthe (Haute-Egypte),,,
1029,"Ermont, Département de Seine-et-Oise",,,,"1029: Ermont, Département de Seine-et-Oise",,,
1030,Erquy,3019875,48.632,-2.463,1030: Erquy,,,
1031,"Erquy, Département des Côtes-du-Nord",3019875,48.632,-2.463,"1031: Erquy, Département des Côtes-du-Nord",,,
1032,Ersa,2507480,36.732,3.087,1032: Ersa,,,
1033,"Ersa, Département de la Corse",6620214,42.975,9.381,"1033: Ersa, Département de la Corse",,,
1034,"Es Mercadal, Ile Minorque",,,,"1034: Es Mercadal, Ile Minorque",,,
1035,Eschentzwiller,3019812,47.713,7.398,1035: Eschentzwiller,,,
1036,"Eschentzwiller, Département du Haut-Rhin",3019812,47.713,7.398,"1036: Eschentzwiller, Département du Haut-Rhin",,,
1037,"Esclassan, Département du Gers",3019801,43.422,0.559,"1037: Esclassan, Département du Gers",,,
1038,Escource,6448890,44.164,-1.033,1038: Escource,,,
1039,"Escource, Département des Landes",6448890,44.164,-1.033,"1039: Escource, Département des Landes",,,
1040,Espagne,2510769,40.000,-4.000,1040: Espagne,,,
1041,"Essonne, Département de Seine-et-Oise",,,,"1041: Essonne, Département de Seine-et-Oise",,,
1042,"Essonnes, Département de Seine-et-Oise",,,,"1042: Essonnes, Département de Seine-et-Oise",,,
1043,"Estadens, Département de la Haute Garonne",3019585,43.041,0.854,"1043: Estadens, Département de la Haute Garonne",,,
1044,"Étables, Département des Côtes-du-Nord",3019480,48.633,-2.833,"1044: Étables, Département des Côtes-du-Nord",,,
1045,"Etalle, Département des Ardennes",3019465,49.848,4.443,"1045: Etalle, Département des Ardennes",,,
1046,"Étavigny, Département de l'Oise",3019430,49.120,2.980,"1046: Étavigny, Département de l'Oise",,,
1047,Étel,3019423,47.656,-3.200,1047: Étel,,,
1048,"Étel, Département du Morbihan",3019423,47.656,-3.200,"1048: Étel, Département du Morbihan",,,
1049,"Étoile-sur-Rhône, Département de la Drôme",3019391,44.839,4.891,"1049: Étoile-sur-Rhône, Département de la Drôme",,,
1050,"Étréaupont, Département de l'Aisne",3019376,49.904,3.913,"1050: Étréaupont, Département de l'Aisne",,,
1051,"Étretat, Département de la Seine-Inférieure",3019355,49.707,0.205,"1051: Étretat, Département de la Seine-Inférieure",,,
1052,"Eu, Département de la Seine Inférieure",3019329,50.046,1.421,"1052: Eu, Département de la Seine Inférieure",,,
1053,"Évaux, Département de la Creuse",3019299,46.175,2.485,"1053: Évaux, Département de la Creuse",,,
1054,"Évenos, Département du Var",3019293,43.164,5.846,"1054: Évenos, Département du Var",,,
